time,LATITUDE_m,ALTITUDE_m,LONGITUDE_m,vx,VSI_ms,vz,qx,qy,qz,qw,wx,wy,wz,fx_global,fy_global,fz_global,alpha_DEG,beta_DEG,pitch_demand,roll_demand,yaw_demand,pitch_demand_attained,roll_demand_attained,yaw_demand_attained,thrust_setting_demand,thrust_attained,CL,CD,CL_CD_ratio,CS,nx,nz,ny,CM_roll_from_aero_forces,CM_yaw_from_aero_forces,CM_pitch_from_aero_forces,CM_roll_from_control,CM_yaw_from_control,CM_pitch_from_control,CM_roll_from_aero_stiffness,CM_yaw_from_aero_stiffness,CM_pitch_from_aero_stiffness,CM_roll_from_aero_damping,CM_yaw_from_aero_damping,CM_pitch_from_aero_damping,q_pitch_rate,p_roll_rate,r_yaw_rate,TAS,EAS,Mach,dynamic_pressure
3.0,-249.466,399.999,0.0,31.995,-0.072,0.0,0.0,0.0,0.0,1.0,-0.0,0.0,0.003,-171.28,3294.926,0.0,-0.0,-0.0,-0.001,-0.001,-0.004,-0.001,-0.001,-0.004,0.0,0.0,0.3,0.016,19.237,0.0,-0.029,0.56,0.0,0.0,0.0,-0.056,-0.0,0.0,0.151,-0.0,-0.0,0.0,-0.0,-0.0,-0.0,0.0,0.0,0.0,32.0,30.789,0.094,603.466
3.017,-249.466,399.999,0.0,31.995,-0.072,0.0,0.0,0.0,0.0,1.0,-0.0,0.0,0.003,-171.28,3294.926,0.0,-0.0,-0.0,-0.001,-0.001,-0.004,-0.001,-0.001,-0.004,0.0,0.0,0.3,0.016,19.237,0.0,-0.029,0.56,0.0,0.0,0.0,-0.056,-0.0,0.0,0.151,-0.0,-0.0,0.0,-0.0,-0.0,-0.0,0.0,0.0,0.0,32.0,30.789,0.094,603.466
3.033,-249.469,399.999,0.0,31.995,-0.072,0.0,0.0,0.0,0.0,1.0,-0.0,0.0,0.003,-171.28,3294.926,0.0,-0.0,-0.0,-0.001,-0.001,-0.004,-0.001,-0.001,-0.004,0.0,0.0,0.3,0.016,19.237,0.0,-0.029,0.56,0.0,0.0,0.0,-0.056,-0.0,0.0,0.151,-0.0,-0.0,0.0,-0.0,-0.0,-0.0,0.0,0.0,0.0,32.0,30.789,0.094,603.466
3.05,-249.462,399.999,0.0,31.995,-0.072,0.0,0.0,0.0,0.0,1.0,-0.0,0.0,0.003,-171.28,3294.926,0.0,-0.0,-0.0,-0.001,-0.001,-0.004,-0.001,-0.001,-0.004,0.0,0.0,0.3,0.016,19.237,0.0,-0.029,0.56,0.0,0.0,0.0,-0.056,-0.0,0.0,0.151,-0.0,-0.0,0.0,-0.0,-0.0,-0.0,0.0,0.0,0.0,32.0,30.789,0.094,603.466
3.067,-249.469,399.999,0.0,31.995,-0.072,0.0,0.0,0.0,0.0,1.0,-0.0,0.0,0.003,-171.28,3294.926,0.0,-0.0,-0.0,-0.001,-0.001,-0.004,-0.001,-0.001,-0.004,0.0,0.0,0.3,0.016,19.237,0.0,-0.029,0.56,0.0,0.0,0.0,-0.056,-0.0,0.0,0.151,-0.0,-0.0,0.0,-0.0,-0.0,-0.0,0.0,0.0,0.0,32.0,30.789,0.094,603.466
3.083,-249.469,399.999,0.0,31.995,-0.072,0.0,0.0,0.0,0.0,1.0,-0.0,0.0,0.003,-171.28,3294.926,0.0,-0.0,-0.0,-0.001,-0.001,-0.004,-0.001,-0.001,-0.004,0.0,0.0,0.3,0.016,19.237,0.0,-0.029,0.56,0.0,0.0,0.0,-0.056,-0.0,0.0,0.151,-0.0,-0.0,0.0,-0.0,-0.0,-0.0,0.0,0.0,0.0,32.0,30.789,0.094,603.466
3.1,-248.934,399.998,0.0,31.991,-0.141,0.0,0.0,0.0,0.0,1.0,-0.0,0.0,0.006,-165.653,3378.823,0.0,0.126,-0.0,-0.001,-0.001,-0.004,-0.001,-0.001,-0.004,0.0,0.0,0.308,0.016,19.504,0.0,-0.028,0.574,0.0,0.0,0.0,-0.057,-0.0,0.0,0.151,-0.0,-0.0,-0.002,-0.0,-0.0,-0.0,0.003,0.0,0.0,31.995,30.785,0.094,603.292
3.117,-248.931,399.998,0.0,31.991,-0.142,0.0,0.0,0.0,0.0,1.0,-0.0,0.0,0.006,-165.612,3379.395,0.0,0.132,-0.0,-0.001,-0.001,-0.004,-0.001,-0.001,-0.004,0.0,0.0,0.308,0.016,19.506,0.0,-0.028,0.574,0.0,0.0,0.0,-0.057,-0.0,0.0,0.151,-0.0,-0.0,-0.002,-0.0,-0.0,-0.0,0.003,0.0,0.0,31.995,30.785,0.094,603.288
3.133,-248.934,399.998,0.0,31.991,-0.141,0.0,0.0,0.0,0.0,1.0,-0.0,0.0,0.006,-165.612,3379.395,0.0,0.132,-0.0,-0.001,-0.001,-0.004,-0.001,-0.001,-0.004,0.0,0.0,0.308,0.016,19.506,0.0,-0.028,0.574,0.0,0.0,0.0,-0.057,-0.0,0.0,0.151,-0.0,-0.0,-0.002,-0.0,-0.0,-0.0,0.003,0.0,0.0,31.995,30.785,0.094,603.288
3.15,-248.934,399.998,0.0,31.991,-0.141,0.0,0.0,0.0,0.0,1.0,-0.0,0.0,0.006,-165.653,3378.823,0.0,0.126,-0.0,-0.001,-0.001,-0.004,-0.001,-0.001,-0.004,0.0,0.0,0.308,0.016,19.504,0.0,-0.028,0.574,0.0,0.0,0.0,-0.057,-0.0,0.0,0.151,-0.0,-0.0,-0.002,-0.0,-0.0,-0.0,0.003,0.0,0.0,31.995,30.785,0.094,603.292
3.167,-248.4,399.995,0.0,31.986,-0.209,0.0,0.0,0.0,0.0,1.0,-0.0,0.0,0.009,-159.85,3460.49,0.0,0.252,-0.0,-0.001,-0.001,-0.004,-0.001,-0.001,-0.004,0.0,0.0,0.315,0.016,19.755,0.0,-0.027,0.588,0.0,0.0,0.0,-0.058,-0.0,0.0,0.151,-0.0,-0.0,-0.004,-0.0,-0.0,-0.001,0.006,0.0,0.0,31.991,30.78,0.094,603.127
3.183,-247.869,399.991,0.0,31.982,-0.274,0.0,0.0,0.0,0.0,1.0,-0.0,0.0,0.012,-154.061,3547.14,0.0,0.384,-0.0,-0.001,-0.001,-0.004,-0.001,-0.001,-0.004,0.0,0.0,0.323,0.016,20.01,0.0,-0.026,0.603,0.0,0.0,0.0,-0.06,-0.0,0.0,0.151,-0.0,-0.0,-0.006,-0.0,-0.0,-0.001,0.009,0.0,0.0,31.987,30.777,0.094,602.976
3.2,-247.335,399.986,0.0,31.978,-0.336,0.0,0.0,0.0,0.0,1.0,-0.0,0.0,0.015,-148.21,3630.49,0.0,0.516,-0.0,-0.001,-0.001,-0.004,-0.001,-0.001,-0.004,0.0,0.0,0.331,0.016,20.246,0.0,-0.025,0.617,0.0,0.0,0.0,-0.061,-0.0,0.0,0.151,-0.0,-0.0,-0.008,-0.0,-0.0,-0.002,0.012,0.0,0.0,31.983,30.773,0.094,602.832
3.217,-246.801,399.98,0.0,31.974,-0.397,0.0,0.0,0.0,0.0,1.0,-0.0,0.0,0.017,-142.258,3711.512,0.0,0.636,-0.0,-0.001,-0.001,-0.004,-0.001,-0.001,-0.004,0.0,0.0,0.338,0.016,20.466,0.0,-0.024,0.631,0.0,0.0,0.0,-0.063,-0.0,0.0,0.151,-0.0,-0.0,-0.01,-0.0,-0.0,-0.002,0.015,0.0,0.0,31.98,30.77,0.094,602.7
3.233,-246.267,399.972,0.0,31.97,-0.455,0.0,0.0,0.0,0.0,1.0,-0.0,0.0,0.02,-136.249,3789.946,0.0,0.756,-0.0,-0.001,-0.001,-0.004,-0.001,-0.001,-0.004,0.0,0.0,0.345,0.017,20.67,0.0,-0.023,0.644,0.0,0.0,0.0,-0.064,-0.0,0.0,0.151,-0.0,-0.0,-0.012,-0.0,-0.0,-0.003,0.017,0.0,0.0,31.976,30.766,0.094,602.576
3.25,-245.737,399.964,0.0,31.966,-0.511,0.0,0.0,0.0,0.001,1.0,-0.0,0.0,0.022,-130.212,3865.815,0.0,0.871,-0.0,-0.001,-0.001,-0.004,-0.001,-0.001,-0.004,0.0,0.0,0.352,0.017,20.86,0.0,-0.022,0.657,0.0,0.0,0.0,-0.065,-0.0,0.0,0.151,-0.0,-0.0,-0.014,-0.0,-0.0,-0.003,0.02,0.0,0.0,31.973,30.764,0.094,602.463
3.267,-245.203,399.955,0.0,31.963,-0.565,0.0,0.0,0.0,0.001,1.0,-0.0,0.0,0.024,-124.288,3946.305,0.0,0.997,-0.0,-0.001,-0.001,-0.004,-0.001,-0.001,-0.004,0.0,0.0,0.36,0.017,21.054,0.0,-0.02,0.671,0.0,0.0,0.0,-0.067,-0.0,0.0,0.151,-0.0,-0.0,-0.016,-0.0,-0.0,-0.003,0.022,0.0,0.0,31.971,30.761,0.094,602.359
3.283,-244.672,399.946,0.0,31.96,-0.616,0.0,0.0,0.0,0.001,1.0,-0.0,0.0,0.026,-118.335,4024.562,0.0,1.117,-0.0,-0.001,-0.001,-0.004,-0.001,-0.001,-0.004,0.0,0.0,0.367,0.017,21.234,0.0,-0.019,0.684,0.0,0.0,0.0,-0.068,-0.0,0.0,0.151,-0.0,-0.0,-0.018,-0.0,-0.0,-0.004,0.024,0.0,0.0,31.968,30.758,0.094,602.262
3.3,-244.139,399.935,0.0,31.957,-0.666,0.0,0.0,0.0,0.001,1.0,-0.0,0.0,0.028,-112.449,4099.897,0.0,1.232,-0.0,-0.001,-0.001,-0.004,-0.001,-0.001,-0.004,0.0,0.0,0.374,0.018,21.4,0.0,-0.018,0.697,0.0,0.0,0.0,-0.069,-0.0,0.0,0.151,-0.0,-0.0,-0.019,-0.0,-0.0,-0.004,0.026,0.0,0.0,31.966,30.756,0.094,602.174
3.317,-243.605,399.923,0.0,31.954,-0.713,0.0,0.0,0.0,0.002,1.0,-0.0,0.0,0.03,-106.56,4173.261,0.0,1.341,-0.0,-0.001,-0.001,-0.004,-0.001,-0.001,-0.004,0.0,0.0,0.381,0.018,21.555,0.0,-0.016,0.709,0.0,0.0,0.0,-0.07,-0.0,0.0,0.151,-0.0,-0.0,-0.021,-0.0,-0.0,-0.004,0.028,0.0,0.0,31.964,30.754,0.094,602.096
3.333,-243.074,399.911,0.0,31.951,-0.759,0.0,0.0,0.0,0.002,1.0,-0.0,0.0,0.032,-100.735,4244.157,0.0,1.45,-0.0,-0.001,-0.001,-0.004,-0.001,-0.001,-0.004,0.0,0.0,0.387,0.018,21.699,0.0,-0.015,0.721,0.0,0.0,0.0,-0.072,-0.0,0.0,0.151,-0.0,-0.0,-0.023,-0.0,-0.0,-0.004,0.03,0.0,0.0,31.962,30.752,0.094,602.022
3.35,-242.541,399.898,0.0,31.948,-0.802,0.0,0.0,0.0,0.002,1.0,-0.0,0.0,0.033,-95.012,4312.488,0.0,1.553,-0.0,-0.001,-0.001,-0.004,-0.001,-0.001,-0.004,0.0,0.0,0.393,0.018,21.832,0.0,-0.014,0.733,0.0,0.0,0.0,-0.073,-0.0,0.0,0.151,-0.0,-0.0,-0.024,-0.0,-0.0,-0.005,0.032,0.0,0.0,31.96,30.751,0.094,601.956
3.367,-242.007,399.884,0.0,31.946,-0.844,0.0,0.0,0.0,0.002,1.0,-0.0,0.0,0.035,-89.375,4386.386,0.0,1.667,-0.0,-0.001,-0.001,-0.004,-0.001,-0.001,-0.004,0.0,0.0,0.4,0.018,21.97,0.0,-0.012,0.746,0.0,0.0,0.0,-0.074,-0.0,0.0,0.151,-0.0,-0.0,-0.026,-0.0,-0.0,-0.005,0.033,0.0,0.0,31.958,30.749,0.094,601.9
3.383,-241.477,399.87,0.0,31.943,-0.884,0.0,0.0,0.0,0.003,1.0,-0.0,0.0,0.036,-83.837,4457.932,0.0,1.776,-0.0,-0.001,-0.001,-0.004,-0.001,-0.001,-0.004,0.0,0.0,0.407,0.018,22.097,0.0,-0.011,0.758,0.0,0.0,0.0,-0.075,-0.0,0.0,0.151,-0.0,-0.0,-0.028,-0.0,-0.0,-0.005,0.035,0.0,0.0,31.957,30.748,0.094,601.847
3.4,-240.944,399.855,0.0,31.941,-0.922,0.0,0.0,0.0,0.003,1.0,-0.0,0.0,0.038,-78.446,4526.914,0.0,1.885,-0.0,-0.001,-0.001,-0.004,-0.001,-0.001,-0.004,0.0,0.0,0.413,0.019,22.215,0.0,-0.009,0.769,0.0,0.0,0.0,-0.076,-0.0,0.0,0.151,-0.0,-0.0,-0.03,-0.0,-0.0,-0.005,0.036,0.0,0.0,31.956,30.747,0.094,601.801
3.417,-240.414,399.84,0.0,31.939,-0.957,0.0,0.0,0.0,0.003,1.0,-0.0,0.0,0.039,-73.153,4593.903,0.0,1.982,-0.0,-0.001,-0.001,-0.004,-0.001,-0.001,-0.004,0.0,0.0,0.419,0.019,22.324,0.0,-0.008,0.781,0.0,0.0,0.0,-0.078,-0.0,0.0,0.151,-0.0,-0.0,-0.031,-0.0,-0.0,-0.006,0.038,0.0,0.0,31.954,30.746,0.094,601.759
3.433,-239.88,399.823,0.0,31.937,-0.991,0.0,0.0,0.0,0.004,1.0,-0.0,0.0,0.04,-68.031,4658.446,0.0,2.086,-0.0,-0.001,-0.001,-0.004,-0.001,-0.001,-0.004,0.0,0.0,0.425,0.019,22.425,0.0,-0.006,0.792,0.0,0.0,0.0,-0.079,-0.0,0.0,0.151,-0.0,-0.0,-0.033,-0.0,-0.0,-0.006,0.039,0.0,0.0,31.954,30.745,0.094,601.725
3.45,-239.347,399.806,0.0,31.936,-1.024,0.0,0.0,0.0,0.004,1.0,-0.0,0.0,0.041,-63.024,4721.115,0.0,2.177,-0.0,-0.001,-0.001,-0.004,-0.001,-0.001,-0.004,0.0,0.0,0.431,0.019,22.519,0.0,-0.005,0.802,0.0,0.0,0.0,-0.08,-0.0,0.0,0.151,-0.0,-0.0,-0.034,-0.0,-0.0,-0.006,0.04,0.0,0.0,31.953,30.744,0.094,601.693
3.467,-238.817,399.789,0.0,31.934,-1.054,0.0,0.0,0.0,0.004,1.0,-0.0,0.0,0.042,-58.161,4781.79,0.0,2.269,-0.0,-0.001,-0.001,-0.004,-0.001,-0.001,-0.004,0.0,0.0,0.436,0.019,22.606,0.0,-0.004,0.813,0.0,0.0,0.0,-0.081,-0.0,0.0,0.151,-0.0,-0.0,-0.036,-0.0,-0.0,-0.006,0.041,0.0,0.0,31.952,30.743,0.094,601.665
3.483,-238.283,399.771,0.0,31.932,-1.083,0.0,0.0,0.0,0.004,1.0,-0.0,0.0,0.043,-53.487,4840.258,0.0,2.361,-0.0,-0.001,-0.001,-0.004,-0.001,-0.001,-0.004,0.0,0.0,0.442,0.02,22.687,0.0,-0.002,0.823,0.0,0.0,0.0,-0.082,-0.0,0.0,0.151,-0.0,-0.0,-0.037,-0.0,-0.0,-0.006,0.042,0.0,0.0,31.951,30.743,0.094,601.643
3.5,-237.75,399.753,0.0,31.931,-1.111,0.0,0.0,0.0,0.005,1.0,-0.0,0.0,0.044,-48.938,4897.09,0.0,2.447,-0.0,-0.001,-0.001,-0.004,-0.001,-0.001,-0.004,0.0,0.0,0.447,0.02,22.762,0.0,-0.001,0.832,0.0,0.0,0.0,-0.083,-0.0,0.0,0.151,-0.0,-0.0,-0.038,-0.0,-0.0,-0.006,0.043,0.0,0.0,31.951,30.742,0.094,601.624
3.517,-237.217,399.734,0.0,31.93,-1.136,0.0,0.0,0.0,0.005,1.0,-0.0,0.0,0.044,-44.535,4959.578,0.0,2.544,-0.0,-0.001,-0.001,-0.004,-0.001,-0.001,-0.004,0.0,0.0,0.452,0.02,22.841,0.0,0.0,0.843,0.0,0.0,0.0,-0.084,-0.0,0.0,0.151,-0.0,-0.0,-0.04,-0.0,-0.0,-0.006,0.044,0.0,0.0,31.95,30.742,0.094,601.608
3.533,-236.687,399.715,0.0,31.929,-1.16,0.0,0.0,0.0,0.006,1.0,-0.0,0.0,0.045,-40.337,5019.98,0.0,2.636,-0.0,-0.001,-0.001,-0.004,-0.001,-0.001,-0.004,0.0,0.0,0.458,0.02,22.914,0.0,0.002,0.853,0.0,0.0,0.0,-0.085,-0.0,0.0,0.151,-0.0,-0.0,-0.041,-0.0,-0.0,-0.006,0.044,0.0,0.0,31.95,30.742,0.094,601.598
3.55,-236.154,399.696,0.0,31.928,-1.183,0.0,0.0,0.0,0.006,1.0,-0.0,0.0,0.045,-36.354,5078.269,0.0,2.722,-0.0,-0.001,-0.001,-0.004,-0.001,-0.001,-0.004,0.0,0.0,0.463,0.02,22.981,0.0,0.004,0.863,0.0,0.0,0.0,-0.086,-0.0,0.0,0.151,-0.0,-0.0,-0.043,-0.0,-0.0,-0.007,0.045,0.0,0.0,31.95,30.742,0.094,601.59
3.567,-235.624,399.676,0.0,31.927,-1.204,0.0,0.0,0.0,0.006,1.0,-0.0,0.0,0.046,-32.552,5134.801,0.0,2.807,-0.0,-0.001,-0.001,-0.004,-0.001,-0.001,-0.004,0.0,0.0,0.468,0.02,23.044,0.0,0.005,0.873,0.0,0.0,0.0,-0.087,-0.0,0.0,0.151,-0.0,-0.0,-0.044,-0.0,-0.0,-0.007,0.045,0.0,0.0,31.95,30.742,0.094,601.585
3.583,-235.09,399.656,0.0,31.926,-1.223,0.0,0.0,0.0,0.007,1.0,-0.0,0.0,0.046,-28.972,5189.338,0.0,2.893,-0.0,-0.001,-0.001,-0.004,-0.001,-0.001,-0.004,0.0,0.0,0.474,0.02,23.101,0.0,0.006,0.882,0.0,0.0,0.0,-0.088,-0.0,0.0,0.151,-0.0,-0.0,-0.045,-0.0,-0.0,-0.007,0.046,0.0,0.0,31.95,30.741,0.094,601.581
3.6,-234.557,399.635,0.0,31.925,-1.241,0.0,0.0,0.0,0.007,1.0,-0.0,0.0,0.046,-25.576,5242.239,0.0,2.974,-0.0,-0.001,-0.001,-0.004,-0.001,-0.001,-0.004,0.0,0.0,0.478,0.021,23.155,0.0,0.008,0.891,0.0,0.0,0.0,-0.089,-0.0,0.0,0.151,-0.0,-0.0,-0.047,-0.0,-0.0,-0.007,0.046,0.0,0.0,31.949,30.741,0.094,601.58
3.617,-234.024,399.614,0.0,31.925,-1.257,0.0,0.0,0.0,0.008,1.0,-0.0,0.0,0.047,-22.371,5293.502,0.0,3.048,-0.0,-0.001,-0.001,-0.004,-0.001,-0.001,-0.004,0.0,0.0,0.483,0.021,23.204,0.0,0.009,0.9,0.0,0.0,0.0,-0.09,-0.0,0.0,0.151,-0.0,-0.0,-0.048,-0.0,-0.0,-0.007,0.046,0.0,0.0,31.949,30.742,0.094,601.58
3.633,-233.494,399.593,0.0,31.924,-1.272,0.0,0.0,0.0,0.008,1.0,-0.0,0.0,0.047,-19.383,5343.008,0.0,3.128,-0.0,-0.001,-0.001,-0.004,-0.001,-0.001,-0.004,0.0,0.0,0.488,0.021,23.25,0.0,0.01,0.908,0.0,0.0,0.0,-0.09,-0.0,0.0,0.151,-0.0,-0.0,-0.049,-0.0,-0.0,-0.007,0.047,0.0,0.0,31.949,30.742,0.094,601.583
3.65,-232.964,399.572,0.0,31.924,-1.286,0.0,0.0,0.0,0.008,1.0,-0.0,0.0,0.047,-16.603,5390.877,0.0,3.197,-0.0,-0.001,-0.001,-0.004,-0.001,-0.001,-0.004,0.0,0.0,0.492,0.021,23.292,0.0,0.012,0.916,0.0,0.0,0.0,-0.091,-0.0,0.0,0.151,-0.0,-0.0,-0.05,-0.0,-0.0,-0.007,0.047,0.0,0.0,31.95,30.742,0.094,601.588
3.667,-232.428,399.55,0.0,31.923,-1.298,0.0,0.0,0.0,0.009,1.0,-0.0,0.0,0.047,-14.038,5437.079,0.0,3.272,-0.0,-0.001,-0.001,-0.004,-0.001,-0.001,-0.004,0.0,0.0,0.496,0.021,23.332,0.0,0.013,0.924,0.0,0.0,0.0,-0.092,-0.0,0.0,0.151,-0.0,-0.0,-0.051,-0.0,-0.0,-0.007,0.047,0.0,0.0,31.95,30.742,0.094,601.591
3.683,-231.898,399.528,0.0,31.923,-1.309,0.0,0.0,0.0,0.009,1.0,-0.0,0.0,0.047,-11.642,5482.0,0.0,3.335,-0.0,-0.001,-0.001,-0.004,-0.001,-0.001,-0.004,0.0,0.0,0.5,0.021,23.368,0.0,0.014,0.932,0.0,0.0,0.0,-0.093,-0.0,0.0,0.151,-0.0,-0.0,-0.052,-0.0,-0.0,-0.007,0.047,0.0,0.0,31.95,30.742,0.094,601.596
3.7,-231.365,399.507,0.0,31.923,-1.319,0.0,0.0,0.0,0.01,1.0,-0.0,0.0,0.047,-9.473,5525.284,0.0,3.403,-0.0,-0.001,-0.001,-0.004,-0.001,-0.001,-0.004,0.0,0.0,0.504,0.022,23.402,0.0,0.016,0.939,0.0,0.0,0.0,-0.093,-0.0,0.0,0.151,-0.0,-0.0,-0.054,-0.0,-0.0,-0.007,0.047,0.0,0.0,31.95,30.742,0.094,601.603
3.717,-230.835,399.485,0.0,31.922,-1.328,0.0,0.0,0.0,0.01,1.0,-0.0,0.0,0.046,-7.484,5567.258,0.0,3.466,-0.0,-0.001,-0.001,-0.004,-0.001,-0.001,-0.004,0.0,0.0,0.508,0.022,23.433,0.0,0.017,0.946,0.0,0.0,0.0,-0.094,-0.0,0.0,0.151,-0.0,-0.0,-0.054,-0.0,-0.0,-0.007,0.047,0.0,0.0,31.95,30.742,0.094,601.609
3.733,-230.302,399.462,0.0,31.922,-1.336,0.0,0.0,0.0,0.01,1.0,-0.0,0.0,0.046,-5.698,5607.832,0.0,3.529,-0.0,-0.001,-0.001,-0.004,-0.001,-0.001,-0.004,0.0,0.0,0.512,0.022,23.462,0.0,0.018,0.953,0.0,0.0,0.0,-0.095,-0.0,0.0,0.151,-0.0,-0.0,-0.055,-0.0,-0.0,-0.007,0.046,0.0,0.0,31.95,30.743,0.094,601.616
3.75,-229.769,399.44,0.0,31.922,-1.342,0.0,0.0,0.0,0.011,1.0,-0.0,0.0,0.046,-4.1,5647.096,0.0,3.587,-0.0,-0.001,-0.001,-0.004,-0.001,-0.001,-0.004,0.0,0.0,0.515,0.022,23.489,0.0,0.019,0.96,0.0,0.0,0.0,-0.095,-0.0,0.0,0.151,-0.0,-0.0,-0.056,-0.0,-0.0,-0.007,0.046,0.0,0.0,31.95,30.743,0.094,601.622
3.767,-229.239,399.418,0.0,31.922,-1.348,0.0,0.0,0.0,0.011,1.0,-0.0,0.0,0.046,-2.696,5685.079,0.0,3.644,-0.0,-0.001,-0.001,-0.004,-0.001,-0.001,-0.004,0.0,0.0,0.519,0.022,23.514,0.0,0.02,0.966,0.0,0.0,0.0,-0.096,-0.0,0.0,0.151,-0.0,-0.0,-0.057,-0.0,-0.0,-0.007,0.046,0.0,0.0,31.95,30.743,0.094,601.63
3.783,-228.706,399.395,0.0,31.922,-1.352,0.0,0.0,0.0,0.012,1.0,-0.0,0.0,0.045,-1.489,5721.751,0.0,3.701,-0.0,-0.001,-0.001,-0.004,-0.001,-0.001,-0.004,0.0,0.0,0.522,0.022,23.538,0.0,0.022,0.972,0.0,0.0,0.0,-0.097,-0.0,0.0,0.151,-0.0,-0.0,-0.058,-0.0,-0.0,-0.007,0.046,0.0,0.0,31.95,30.743,0.094,601.636
3.8,-228.173,399.373,0.0,31.922,-1.356,0.0,0.0,0.0,0.012,1.0,-0.0,0.0,0.045,-0.464,5757.262,0.0,3.753,-0.0,-0.001,-0.001,-0.004,-0.001,-0.001,-0.004,0.0,0.0,0.525,0.022,23.559,0.0,0.023,0.978,0.0,0.0,0.0,-0.097,-0.0,0.0,0.151,-0.0,-0.0,-0.059,-0.0,-0.0,-0.007,0.045,0.0,0.0,31.951,30.744,0.094,601.645
3.817,-227.643,399.35,0.0,31.922,-1.358,0.0,0.0,0.0,0.012,1.0,-0.0,0.0,0.044,0.376,5791.58,0.0,3.804,-0.0,-0.001,-0.001,-0.004,-0.001,-0.001,-0.004,0.0,0.0,0.528,0.022,23.579,0.0,0.024,0.984,0.0,0.0,0.0,-0.098,-0.0,0.0,0.151,-0.0,-0.0,-0.06,-0.0,-0.0,-0.007,0.045,0.0,0.0,31.951,30.744,0.094,601.652
3.833,-227.11,399.327,0.0,31.922,-1.36,0.0,0.0,0.0,0.013,1.0,-0.0,0.0,0.044,1.048,5824.826,0.0,3.856,-0.0,-0.001,-0.001,-0.004,-0.001,-0.001,-0.004,0.0,0.0,0.532,0.022,23.598,0.0,0.025,0.99,0.0,0.0,0.0,-0.098,-0.0,0.0,0.151,-0.0,-0.0,-0.061,-0.0,-0.0,-0.007,0.044,0.0,0.0,31.951,30.744,0.094,601.657
3.85,-226.58,399.305,0.0,31.922,-1.361,0.0,0.0,0.0,0.013,1.0,-0.0,0.0,0.043,1.528,5856.878,0.0,3.908,-0.0,-0.001,-0.001,-0.004,-0.001,-0.001,-0.004,0.0,0.0,0.534,0.023,23.615,0.0,0.026,0.995,0.0,0.0,0.0,-0.099,-0.0,0.0,0.151,-0.0,-0.0,-0.061,-0.0,-0.0,-0.006,0.044,0.0,0.0,31.951,30.744,0.094,601.661
3.867,-226.044,399.282,0.0,31.922,-1.361,0.0,0.0,0.0,0.014,1.0,-0.0,0.0,0.043,1.854,5887.976,0.0,3.953,-0.0,-0.001,-0.001,-0.004,-0.001,-0.001,-0.004,0.0,0.0,0.537,0.023,23.632,0.0,0.027,1.0,0.0,0.0,0.0,-0.1,-0.0,0.0,0.151,-0.0,-0.0,-0.062,-0.0,-0.0,-0.006,0.043,0.0,0.0,31.951,30.744,0.094,601.664
3.883,-225.514,399.259,0.0,31.922,-1.36,0.0,0.0,0.0,0.014,1.0,-0.0,0.0,0.042,2.004,5918.032,0.0,3.999,-0.0,-0.001,-0.001,-0.004,-0.001,-0.001,-0.004,0.0,0.0,0.54,0.023,23.646,0.0,0.028,1.005,0.0,0.0,0.0,-0.1,-0.0,0.0,0.151,-0.0,-0.0,-0.063,-0.0,-0.0,-0.006,0.043,0.0,0.0,31.951,30.744,0.094,601.669
3.9,-224.981,399.237,0.0,31.922,-1.358,0.0,0.0,0.0,0.014,1.0,-0.0,0.0,0.042,1.994,5947.133,0.0,4.045,-0.0,-0.001,-0.001,-0.004,-0.001,-0.001,-0.004,0.0,0.0,0.543,0.023,23.661,0.0,0.029,1.01,0.0,0.0,0.0,-0.1,-0.0,0.0,0.151,-0.0,-0.0,-0.064,-0.0,-0.0,-0.006,0.042,0.0,0.0,31.951,30.744,0.094,601.672
3.917,-224.451,399.214,0.0,31.922,-1.356,0.0,0.0,0.0,0.015,1.0,-0.0,0.0,0.041,1.805,5975.16,0.0,4.085,-0.0,-0.001,-0.001,-0.004,-0.001,-0.001,-0.004,0.0,0.0,0.545,0.023,23.674,0.0,0.03,1.015,0.0,0.0,0.0,-0.101,-0.0,0.0,0.151,-0.0,-0.0,-0.064,-0.0,-0.0,-0.006,0.042,0.0,0.0,31.951,30.744,0.094,601.674
3.933,-223.918,399.192,0.0,31.922,-1.352,0.0,0.0,0.0,0.015,1.0,-0.0,0.0,0.04,1.436,5994.786,0.0,4.114,-0.0,-0.001,-0.001,-0.004,-0.001,-0.001,-0.004,0.0,0.0,0.547,0.023,23.682,0.0,0.03,1.018,0.0,0.0,0.0,-0.101,-0.0,0.0,0.151,-0.0,-0.0,-0.065,-0.0,-0.0,-0.006,0.041,0.0,0.0,31.951,30.744,0.094,601.672
3.95,-223.388,399.169,0.0,31.922,-1.349,0.0,0.0,0.0,0.015,1.0,-0.0,0.0,0.039,0.946,6013.696,0.0,4.142,-0.0,-0.001,-0.001,-0.004,-0.001,-0.001,-0.004,0.0,0.0,0.549,0.023,23.691,0.0,0.031,1.022,0.0,0.0,0.0,-0.102,-0.0,0.0,0.151,-0.0,-0.0,-0.065,-0.0,-0.0,-0.006,0.04,0.0,0.0,31.951,30.744,0.094,601.668
3.967,-222.852,399.146,0.0,31.922,-1.345,0.0,0.0,0.0,0.016,1.0,-0.0,0.0,0.039,0.354,6032.008,0.0,4.171,-0.0,-0.001,-0.001,-0.004,-0.001,-0.001,-0.004,0.0,0.0,0.55,0.023,23.698,0.0,0.031,1.025,0.0,0.0,0.0,-0.102,-0.0,0.0,0.151,-0.0,-0.0,-0.066,-0.0,-0.0,-0.006,0.039,0.0,0.0,31.951,30.744,0.094,601.664
3.983,-222.322,399.124,0.0,31.922,-1.34,0.0,0.0,0.0,0.016,1.0,-0.0,0.0,0.038,-0.342,6049.723,0.0,4.2,-0.0,-0.001,-0.001,-0.004,-0.001,-0.001,-0.004,0.0,0.0,0.552,0.023,23.706,0.0,0.032,1.028,0.0,0.0,0.0,-0.102,-0.0,0.0,0.151,-0.0,-0.0,-0.066,-0.0,-0.0,-0.006,0.039,0.0,0.0,31.951,30.744,0.094,601.658
4.0,-221.788,399.102,0.0,31.922,-1.335,0.0,0.0,0.0,0.016,1.0,-0.0,0.0,0.037,-1.14,6066.841,0.0,4.228,-0.0,-0.001,-0.001,-0.004,-0.001,-0.001,-0.004,0.0,0.0,0.554,0.023,23.713,0.0,0.033,1.031,0.0,0.0,0.0,-0.102,-0.0,0.0,0.151,-0.0,-0.0,-0.066,-0.0,-0.0,-0.006,0.038,0.0,0.0,31.95,30.744,0.094,601.652
4.017,-221.259,399.08,0.0,31.922,-1.33,0.0,0.0,0.0,0.016,1.0,-0.0,0.0,0.036,-2.043,6083.361,0.0,4.251,-0.0,-0.001,-0.001,-0.004,-0.001,-0.001,-0.004,0.0,0.0,0.555,0.023,23.719,0.0,0.033,1.033,0.0,0.0,0.0,-0.103,-0.0,0.0,0.151,-0.0,-0.0,-0.067,-0.0,-0.0,-0.006,0.037,0.0,0.0,31.95,30.744,0.094,601.646
4.033,-220.726,399.058,0.0,31.922,-1.324,0.0,0.0,0.0,0.017,1.0,-0.0,0.0,0.035,-3.03,6099.37,0.0,4.274,-0.0,-0.001,-0.001,-0.004,-0.001,-0.001,-0.004,0.0,0.0,0.556,0.024,23.726,0.0,0.034,1.036,0.0,0.0,0.0,-0.103,-0.0,0.0,0.151,-0.0,-0.0,-0.067,-0.0,-0.0,-0.005,0.036,0.0,0.0,31.95,30.744,0.094,601.635
4.05,-220.192,399.036,0.0,31.922,-1.317,0.0,0.0,0.0,0.017,1.0,-0.0,0.0,0.034,-4.121,6114.781,0.0,4.297,-0.0,-0.001,-0.001,-0.004,-0.001,-0.001,-0.004,0.0,0.0,0.558,0.024,23.731,0.0,0.034,1.039,0.0,0.0,0.0,-0.103,-0.0,0.0,0.151,-0.0,-0.0,-0.068,-0.0,-0.0,-0.005,0.035,0.0,0.0,31.95,30.743,0.094,601.623
4.067,-219.662,399.014,0.0,31.922,-1.31,0.0,0.0,0.0,0.017,1.0,-0.0,0.0,0.034,-5.298,6129.714,0.0,4.32,-0.0,-0.001,-0.001,-0.004,-0.001,-0.001,-0.004,0.0,0.0,0.559,0.024,23.737,0.0,0.035,1.041,0.0,0.0,0.0,-0.104,-0.0,0.0,0.151,-0.0,-0.0,-0.068,-0.0,-0.0,-0.005,0.034,0.0,0.0,31.949,30.743,0.094,601.61
4.083,-219.129,398.992,0.0,31.922,-1.303,0.0,0.0,0.0,0.018,1.0,-0.0,0.0,0.033,-6.559,6144.168,0.0,4.343,-0.0,-0.001,-0.001,-0.004,-0.001,-0.001,-0.004,0.0,0.0,0.561,0.024,23.742,0.0,0.035,1.044,0.0,0.0,0.0,-0.104,-0.0,0.0,0.151,-0.0,-0.0,-0.068,-0.0,-0.0,-0.005,0.034,0.0,0.0,31.949,30.743,0.094,601.597
4.1,-218.596,398.97,0.0,31.922,-1.296,0.0,0.0,0.0,0.018,1.0,-0.0,0.0,0.032,-7.906,6158.111,0.0,4.366,-0.0,-0.001,-0.001,-0.004,-0.001,-0.001,-0.004,0.0,0.0,0.562,0.024,23.747,0.0,0.036,1.046,0.0,0.0,0.0,-0.104,-0.0,0.0,0.151,-0.0,-0.0,-0.069,-0.0,-0.0,-0.005,0.033,0.0,0.0,31.948,30.742,0.094,601.58
4.117,-218.063,398.949,0.0,31.921,-1.288,0.0,0.0,0.0,0.018,1.0,-0.0,0.0,0.031,-9.338,6171.574,0.0,4.389,-0.0,-0.001,-0.001,-0.004,-0.001,-0.001,-0.004,0.0,0.0,0.563,0.024,23.752,0.0,0.036,1.048,0.0,0.0,0.0,-0.104,-0.0,0.0,0.151,-0.0,-0.0,-0.069,-0.0,-0.0,-0.005,0.032,0.0,0.0,31.948,30.742,0.094,601.562
4.133,-217.533,398.927,0.0,31.921,-1.279,0.0,0.0,0.0,0.019,1.0,-0.0,0.0,0.03,-10.854,6184.526,0.0,4.406,-0.0,-0.001,-0.001,-0.004,-0.001,-0.001,-0.004,0.0,0.0,0.564,0.024,23.756,0.0,0.037,1.05,0.0,0.0,0.0,-0.104,-0.0,0.0,0.151,-0.0,-0.0,-0.069,-0.0,-0.0,-0.005,0.031,0.0,0.0,31.947,30.742,0.094,601.54
4.15,-217.0,398.906,0.0,31.921,-1.271,0.0,0.0,0.0,0.019,1.0,-0.0,0.0,0.029,-12.437,6197.118,0.0,4.429,-0.0,-0.001,-0.001,-0.004,-0.001,-0.001,-0.004,0.0,0.0,0.566,0.024,23.76,0.0,0.037,1.053,0.0,0.0,0.0,-0.105,-0.0,0.0,0.151,-0.0,-0.0,-0.07,-0.0,-0.0,-0.004,0.03,0.0,0.0,31.947,30.741,0.094,601.517
4.167,-216.467,398.885,0.0,31.92,-1.262,0.0,0.0,0.0,0.019,1.0,-0.0,0.0,0.028,-14.106,6209.23,0.0,4.446,-0.0,-0.001,-0.001,-0.004,-0.001,-0.001,-0.004,0.0,0.0,0.567,0.024,23.764,0.0,0.038,1.055,0.0,0.0,0.0,-0.105,-0.0,0.0,0.151,-0.0,-0.0,-0.07,-0.0,-0.0,-0.004,0.029,0.0,0.0,31.946,30.74,0.094,601.494
4.183,-215.937,398.864,0.0,31.92,-1.252,0.0,0.0,0.0,0.019,1.0,-0.0,0.0,0.027,-15.866,6213.301,0.0,4.452,-0.0,-0.001,-0.001,-0.004,-0.001,-0.001,-0.004,0.0,0.0,0.567,0.024,23.765,0.0,0.038,1.055,0.0,0.0,0.0,-0.105,-0.0,0.0,0.151,-0.0,-0.0,-0.07,-0.0,-0.0,-0.004,0.028,0.0,0.0,31.945,30.74,0.094,601.467
4.2,-215.407,398.843,0.0,31.919,-1.243,0.0,0.0,0.0,0.02,1.0,-0.0,0.0,0.026,-17.628,6217.371,0.0,4.458,-0.0,-0.001,-0.001,-0.004,-0.001,-0.001,-0.004,0.0,0.0,0.568,0.024,23.767,0.0,0.038,1.056,0.0,0.0,0.0,-0.105,-0.0,0.0,0.151,-0.0,-0.0,-0.07,-0.0,-0.0,-0.004,0.027,0.0,0.0,31.944,30.739,0.094,601.44
4.217,-214.871,398.822,0.0,31.919,-1.234,0.0,0.0,0.0,0.02,1.0,-0.0,0.0,0.025,-19.411,6221.287,0.0,4.463,-0.0,-0.001,-0.001,-0.004,-0.001,-0.001,-0.004,0.0,0.0,0.568,0.024,23.768,0.0,0.038,1.057,0.0,0.0,0.0,-0.105,-0.0,0.0,0.151,-0.0,-0.0,-0.07,-0.0,-0.0,-0.004,0.026,0.0,0.0,31.944,30.738,0.094,601.408
4.233,-214.341,398.802,0.0,31.918,-1.224,0.0,0.0,0.0,0.02,1.0,-0.0,0.0,0.024,-21.236,6224.964,0.0,4.469,-0.0,-0.001,-0.001,-0.004,-0.001,-0.001,-0.004,0.0,0.0,0.568,0.024,23.769,0.0,0.038,1.057,0.0,0.0,0.0,-0.105,-0.0,0.0,0.151,-0.0,-0.0,-0.07,-0.0,-0.0,-0.004,0.025,0.0,0.0,31.943,30.738,0.094,601.377
4.25,-213.808,398.782,0.0,31.918,-1.215,0.0,0.0,0.0,0.02,1.0,-0.0,0.0,0.023,-23.062,6228.605,0.0,4.475,-0.0,-0.001,-0.001,-0.004,-0.001,-0.001,-0.004,0.0,0.0,0.569,0.024,23.77,0.0,0.038,1.058,0.0,0.0,0.0,-0.105,-0.0,0.0,0.151,-0.0,-0.0,-0.07,-0.0,-0.0,-0.004,0.024,0.0,0.0,31.942,30.737,0.094,601.342
4.267,-213.278,398.762,0.0,31.917,-1.205,0.0,0.0,0.0,0.02,1.0,-0.0,0.0,0.022,-24.93,6232.007,0.0,4.481,-0.0,-0.001,-0.001,-0.004,-0.001,-0.001,-0.004,0.0,0.0,0.569,0.024,23.772,0.0,0.038,1.058,0.0,0.0,0.0,-0.105,-0.0,0.0,0.151,-0.0,-0.0,-0.07,-0.0,-0.0,-0.003,0.023,0.0,0.0,31.941,30.736,0.094,601.307
4.283,-212.746,398.742,0.0,31.916,-1.195,0.0,0.0,0.0,0.02,1.0,-0.0,0.0,0.021,-26.798,6235.373,0.0,4.486,-0.0,-0.001,-0.001,-0.004,-0.001,-0.001,-0.004,0.0,0.0,0.569,0.024,23.773,0.0,0.038,1.059,0.0,0.0,0.0,-0.105,-0.0,0.0,0.151,-0.0,-0.0,-0.07,-0.0,-0.0,-0.003,0.022,0.0,0.0,31.94,30.735,0.094,601.268
4.3,-212.212,398.722,0.0,31.916,-1.186,0.0,0.0,0.0,0.021,1.0,-0.0,0.0,0.02,-28.708,6238.5,0.0,4.492,-0.0,-0.001,-0.001,-0.004,-0.001,-0.001,-0.004,0.0,0.0,0.57,0.024,23.774,0.0,0.039,1.06,0.0,0.0,0.0,-0.106,-0.0,0.0,0.151,-0.0,-0.0,-0.071,-0.0,-0.0,-0.003,0.021,0.0,0.0,31.939,30.734,0.094,601.229
4.317,-211.683,398.702,0.0,31.915,-1.176,0.0,0.0,0.0,0.021,1.0,-0.0,0.0,0.019,-30.638,6241.472,0.0,4.498,-0.0,-0.001,-0.001,-0.004,-0.001,-0.001,-0.004,0.0,0.0,0.57,0.024,23.775,0.0,0.039,1.06,0.0,0.0,0.0,-0.106,-0.0,0.0,0.151,-0.0,-0.0,-0.071,-0.0,-0.0,-0.003,0.02,0.0,0.0,31.938,30.733,0.094,601.186
4.333,-211.15,398.683,0.0,31.914,-1.166,0.0,0.0,0.0,0.021,1.0,-0.0,0.0,0.018,-32.57,6244.443,0.0,4.503,-0.0,-0.001,-0.001,-0.004,-0.001,-0.001,-0.004,0.0,0.0,0.57,0.024,23.776,0.0,0.039,1.061,0.0,0.0,0.0,-0.106,-0.0,0.0,0.151,-0.0,-0.0,-0.071,-0.0,-0.0,-0.003,0.019,0.0,0.0,31.936,30.732,0.094,601.143
4.35,-210.617,398.663,0.0,31.913,-1.156,0.0,0.0,0.0,0.021,1.0,-0.0,0.0,0.017,-34.523,6247.259,0.0,4.509,-0.0,-0.001,-0.001,-0.004,-0.001,-0.001,-0.004,0.0,0.0,0.571,0.024,23.777,0.0,0.039,1.061,0.0,0.0,0.0,-0.106,-0.0,0.0,0.151,-0.0,-0.0,-0.071,-0.0,-0.0,-0.003,0.018,0.0,0.0,31.935,30.731,0.094,601.097
4.367,-210.087,398.644,0.0,31.912,-1.145,0.0,0.0,0.0,0.021,1.0,-0.0,0.0,0.016,-36.496,6249.92,0.0,4.515,-0.0,-0.001,-0.001,-0.004,-0.001,-0.001,-0.004,0.0,0.0,0.571,0.024,23.778,0.0,0.039,1.062,0.0,0.0,0.0,-0.106,-0.0,0.0,0.151,-0.0,-0.0,-0.071,-0.0,-0.0,-0.003,0.017,0.0,0.0,31.934,30.729,0.094,601.046
4.383,-209.554,398.625,0.0,31.911,-1.135,0.0,0.0,0.0,0.022,1.0,-0.0,0.0,0.015,-38.448,6245.057,0.0,4.509,-0.0,-0.001,-0.001,-0.004,-0.001,-0.001,-0.004,0.0,0.0,0.57,0.024,23.776,0.0,0.039,1.061,0.0,0.0,0.0,-0.106,-0.0,0.0,0.151,-0.0,-0.0,-0.071,-0.0,-0.0,-0.002,0.016,0.0,0.0,31.932,30.728,0.094,600.996
4.4,-209.021,398.606,0.0,31.91,-1.126,0.0,0.0,0.0,0.022,1.0,-0.0,0.0,0.014,-40.377,6240.279,0.0,4.503,-0.0,-0.001,-0.001,-0.004,-0.001,-0.001,-0.004,0.0,0.0,0.57,0.024,23.775,0.0,0.039,1.06,0.0,0.0,0.0,-0.106,-0.0,0.0,0.151,-0.0,-0.0,-0.071,-0.0,-0.0,-0.002,0.015,0.0,0.0,31.931,30.727,0.094,600.943
4.417,-208.488,398.588,0.0,31.908,-1.116,0.0,0.0,0.0,0.022,1.0,-0.0,0.0,0.014,-42.285,6235.62,0.0,4.498,-0.0,-0.001,-0.001,-0.004,-0.001,-0.001,-0.004,0.0,0.0,0.57,0.024,23.774,0.0,0.039,1.059,0.0,0.0,0.0,-0.106,-0.0,0.0,0.151,-0.0,-0.0,-0.071,-0.0,-0.0,-0.002,0.014,0.0,0.0,31.929,30.725,0.094,600.889
4.433,-207.959,398.569,0.0,31.907,-1.106,0.0,0.0,0.0,0.022,1.0,-0.0,0.0,0.013,-44.17,6231.046,0.0,4.486,-0.0,-0.001,-0.001,-0.004,-0.001,-0.001,-0.004,0.0,0.0,0.569,0.024,23.773,0.0,0.038,1.058,0.0,0.0,0.0,-0.105,-0.0,0.0,0.151,-0.0,-0.0,-0.07,-0.0,-0.0,-0.002,0.014,0.0,0.0,31.928,30.724,0.094,600.832
4.45,-207.426,398.551,0.0,31.906,-1.097,0.0,0.0,0.0,0.022,1.0,-0.0,0.0,0.012,-46.015,6226.71,0.0,4.481,-0.0,-0.001,-0.001,-0.004,-0.001,-0.001,-0.004,0.0,0.0,0.569,0.024,23.772,0.0,0.038,1.058,0.0,0.0,0.0,-0.105,-0.0,0.0,0.151,-0.0,-0.0,-0.07,-0.0,-0.0,-0.002,0.013,0.0,0.0,31.926,30.722,0.094,600.776
4.467,-206.896,398.533,0.0,31.905,-1.087,0.0,0.0,0.0,0.022,1.0,-0.0,0.0,0.011,-47.837,6222.458,0.0,4.475,-0.0,-0.001,-0.001,-0.004,-0.001,-0.001,-0.004,0.0,0.0,0.569,0.024,23.771,0.0,0.038,1.057,0.0,0.0,0.0,-0.105,-0.0,0.0,0.151,-0.0,-0.0,-0.07,-0.0,-0.0,-0.002,0.012,0.0,0.0,31.925,30.721,0.094,600.715
4.483,-206.363,398.514,0.0,31.903,-1.078,0.0,0.0,0.0,0.022,1.0,-0.0,0.0,0.01,-49.639,6218.326,0.0,4.475,-0.0,-0.001,-0.001,-0.004,-0.001,-0.001,-0.004,0.0,0.0,0.568,0.024,23.77,0.0,0.038,1.056,0.0,0.0,0.0,-0.105,-0.0,0.0,0.151,-0.0,-0.0,-0.07,-0.0,-0.0,-0.002,0.011,0.0,0.0,31.923,30.72,0.094,600.655
4.5,-205.834,398.497,0.0,31.902,-1.069,0.0,0.0,0.0,0.022,1.0,-0.0,0.0,0.009,-51.418,6214.279,0.0,4.469,-0.0,-0.001,-0.001,-0.004,-0.001,-0.001,-0.004,0.0,0.0,0.568,0.024,23.768,0.0,0.038,1.056,0.0,0.0,0.0,-0.105,-0.0,0.0,0.151,-0.0,-0.0,-0.07,-0.0,-0.0,-0.002,0.01,0.0,0.0,31.921,30.718,0.094,600.592
4.517,-205.301,398.479,0.0,31.9,-1.06,0.0,0.0,0.0,0.022,1.0,-0.0,0.0,0.008,-53.157,6210.469,0.0,4.463,-0.0,-0.001,-0.001,-0.004,-0.001,-0.001,-0.004,0.0,0.0,0.568,0.024,23.768,0.0,0.038,1.055,0.0,0.0,0.0,-0.105,-0.0,0.0,0.151,-0.0,-0.0,-0.07,-0.0,-0.0,-0.001,0.009,0.0,0.0,31.92,30.716,0.094,600.529
4.533,-204.768,398.461,0.0,31.899,-1.051,0.0,0.0,0.0,0.022,1.0,-0.0,0.0,0.007,-54.894,6206.625,0.0,4.458,-0.0,-0.001,-0.001,-0.004,-0.001,-0.001,-0.004,0.0,0.0,0.568,0.024,23.767,0.0,0.038,1.054,0.0,0.0,0.0,-0.105,-0.0,0.0,0.151,-0.0,-0.0,-0.07,-0.0,-0.0,-0.001,0.008,0.0,0.0,31.918,30.715,0.094,600.462
4.55,-204.236,398.444,0.0,31.897,-1.042,0.0,0.0,0.0,0.022,1.0,-0.0,0.0,0.006,-56.61,6202.9,0.0,4.452,-0.0,-0.001,-0.001,-0.004,-0.001,-0.001,-0.004,0.0,0.0,0.567,0.024,23.766,0.0,0.038,1.054,0.0,0.0,0.0,-0.105,-0.0,0.0,0.151,-0.0,-0.0,-0.07,-0.0,-0.0,-0.001,0.007,0.0,0.0,31.916,30.713,0.094,600.395
4.567,-203.706,398.427,0.0,31.896,-1.033,0.0,0.0,0.0,0.023,1.0,-0.0,0.0,0.006,-58.304,6199.259,0.0,4.446,-0.0,-0.001,-0.001,-0.004,-0.001,-0.001,-0.004,0.0,0.0,0.567,0.024,23.765,0.0,0.038,1.053,0.0,0.0,0.0,-0.105,-0.0,0.0,0.151,-0.0,-0.0,-0.07,-0.0,-0.0,-0.001,0.006,0.0,0.0,31.914,30.711,0.094,600.325
4.583,-203.174,398.409,0.0,31.894,-1.024,0.0,0.0,0.0,0.023,1.0,-0.0,0.0,0.005,-59.96,6195.856,0.0,4.446,-0.0,-0.001,-0.001,-0.004,-0.001,-0.001,-0.004,0.0,0.0,0.567,0.024,23.764,0.0,0.037,1.052,0.0,0.0,0.0,-0.105,-0.0,0.0,0.151,-0.0,-0.0,-0.07,-0.0,-0.0,-0.001,0.006,0.0,0.0,31.912,30.709,0.094,600.256
4.6,-202.641,398.392,0.0,31.892,-1.016,0.0,0.0,0.0,0.023,1.0,-0.0,0.0,0.004,-61.564,6184.906,0.0,4.429,-0.0,-0.001,-0.001,-0.004,-0.001,-0.001,-0.004,0.0,0.0,0.566,0.024,23.761,0.0,0.037,1.05,0.0,0.0,0.0,-0.105,-0.0,0.0,0.151,-0.0,-0.0,-0.07,-0.0,-0.0,-0.001,0.005,0.0,0.0,31.91,30.708,0.094,600.182
4.617,-202.108,398.376,0.0,31.89,-1.008,0.0,0.0,0.0,0.023,1.0,-0.0,0.0,0.003,-63.108,6174.315,0.0,4.412,-0.0,-0.001,-0.001,-0.004,-0.001,-0.001,-0.004,0.0,0.0,0.565,0.024,23.758,0.0,0.037,1.049,0.0,0.0,0.0,-0.105,-0.0,0.0,0.151,-0.0,-0.0,-0.069,-0.0,-0.0,-0.001,0.004,0.0,0.0,31.908,30.706,0.094,600.109
4.633,-201.579,398.359,0.0,31.889,-1.0,0.0,0.0,0.0,0.023,1.0,-0.0,0.0,0.002,-64.59,6164.048,0.0,4.4,-0.0,-0.001,-0.001,-0.004,-0.001,-0.001,-0.004,0.0,0.0,0.564,0.024,23.754,0.0,0.036,1.047,0.0,0.0,0.0,-0.104,-0.0,0.0,0.151,-0.0,-0.0,-0.069,-0.0,-0.0,-0.0,0.003,0.0,0.0,31.906,30.704,0.094,600.033
4.65,-201.05,398.342,0.0,31.887,-0.993,0.0,0.0,0.0,0.023,1.0,-0.0,0.0,0.002,-65.994,6154.259,0.0,4.383,-0.0,-0.001,-0.001,-0.004,-0.001,-0.001,-0.004,0.0,0.0,0.563,0.024,23.751,0.0,0.036,1.045,0.0,0.0,0.0,-0.104,-0.0,0.0,0.151,-0.0,-0.0,-0.069,-0.0,-0.0,-0.0,0.002,0.0,0.0,31.904,30.702,0.094,599.957
4.667,-200.517,398.326,0.0,31.885,-0.985,0.0,0.0,0.0,0.023,1.0,-0.0,0.0,0.001,-67.357,6144.709,0.0,4.372,-0.0,-0.001,-0.001,-0.004,-0.001,-0.001,-0.004,0.0,0.0,0.562,0.024,23.748,0.0,0.036,1.044,0.0,0.0,0.0,-0.104,-0.0,0.0,0.151,-0.0,-0.0,-0.069,-0.0,-0.0,-0.0,0.002,0.0,0.0,31.902,30.7,0.094,599.881
4.683,-199.985,398.309,0.0,31.883,-0.978,0.0,0.0,0.0,0.023,1.0,-0.0,0.0,0.0,-68.678,6135.365,0.0,4.36,-0.0,-0.001,-0.001,-0.004,-0.001,-0.001,-0.004,0.0,0.0,0.562,0.024,23.745,0.0,0.035,1.042,0.0,0.0,0.0,-0.104,-0.0,0.0,0.151,-0.0,-0.0,-0.068,-0.0,-0.0,-0.0,0.001,0.0,0.0,31.9,30.698,0.094,599.802
4.7,-199.452,398.293,0.0,31.881,-0.972,0.0,0.0,0.0,0.023,1.0,-0.0,0.0,-0.0,-69.941,6126.379,0.0,4.349,-0.0,-0.001,-0.001,-0.004,-0.001,-0.001,-0.004,0.0,0.0,0.561,0.024,23.743,0.0,0.035,1.041,0.0,0.0,0.0,-0.104,-0.0,0.0,0.151,-0.0,-0.0,-0.068,-0.0,-0.0,-0.0,0.0,0.0,0.0,31.898,30.696,0.094,599.724
4.717,-198.923,398.277,0.0,31.879,-0.965,0.0,0.0,0.0,0.023,1.0,-0.0,0.0,-0.001,-71.146,6117.752,0.0,4.337,-0.0,-0.001,-0.001,-0.004,-0.001,-0.001,-0.004,0.0,0.0,0.56,0.024,23.74,0.0,0.035,1.039,0.0,0.0,0.0,-0.104,-0.0,0.0,0.151,-0.0,-0.0,-0.068,-0.0,-0.0,0.0,-0.0,0.0,0.0,31.896,30.694,0.094,599.646
4.733,-198.394,398.261,0.0,31.877,-0.959,0.0,0.0,0.0,0.023,1.0,-0.0,0.0,-0.002,-72.311,6109.329,0.0,4.326,-0.0,-0.001,-0.001,-0.004,-0.001,-0.001,-0.004,0.0,0.0,0.559,0.024,23.737,0.0,0.035,1.038,0.0,0.0,0.0,-0.104,-0.0,0.0,0.151,-0.0,-0.0,-0.068,-0.0,-0.0,0.0,-0.001,0.0,0.0,31.894,30.692,0.094,599.564
4.75,-197.862,398.245,0.0,31.875,-0.953,0.0,0.0,0.0,0.023,1.0,-0.0,0.0,-0.003,-73.418,6101.264,0.0,4.314,-0.0,-0.001,-0.001,-0.004,-0.001,-0.001,-0.004,0.0,0.0,0.559,0.024,23.734,0.0,0.034,1.036,0.0,0.0,0.0,-0.104,-0.0,0.0,0.151,-0.0,-0.0,-0.068,-0.0,-0.0,0.0,-0.002,0.0,0.0,31.892,30.69,0.094,599.483
4.767,-197.326,398.229,0.0,31.873,-0.947,0.0,0.0,0.0,0.023,1.0,-0.0,0.0,-0.003,-74.486,6093.439,0.0,4.303,-0.0,-0.001,-0.001,-0.004,-0.001,-0.001,-0.004,0.0,0.0,0.558,0.024,23.732,0.0,0.034,1.035,0.0,0.0,0.0,-0.103,-0.0,0.0,0.151,-0.0,-0.0,-0.068,-0.0,-0.0,0.0,-0.003,0.0,0.0,31.889,30.688,0.094,599.402
4.783,-196.797,398.213,0.0,31.871,-0.942,0.0,0.0,0.0,0.023,1.0,-0.0,0.0,-0.004,-75.533,6085.7,0.0,4.291,-0.0,-0.001,-0.001,-0.004,-0.001,-0.001,-0.004,0.0,0.0,0.558,0.024,23.729,0.0,0.034,1.034,0.0,0.0,0.0,-0.103,-0.0,0.0,0.151,-0.0,-0.0,-0.067,-0.0,-0.0,0.0,-0.003,0.0,0.0,31.887,30.686,0.094,599.317
4.8,-196.265,398.198,0.0,31.869,-0.936,0.0,0.0,0.0,0.023,1.0,-0.0,0.0,-0.004,-76.523,6078.318,0.0,4.28,-0.0,-0.001,-0.001,-0.004,-0.001,-0.001,-0.004,0.0,0.0,0.557,0.024,23.727,0.0,0.034,1.033,0.0,0.0,0.0,-0.103,-0.0,0.0,0.151,-0.0,-0.0,-0.067,-0.0,-0.0,0.001,-0.004,0.0,0.0,31.885,30.684,0.094,599.233
4.817,-195.736,398.182,0.0,31.867,-0.931,0.0,0.0,0.0,0.023,1.0,-0.0,0.0,-0.005,-77.475,6071.176,0.0,4.274,-0.0,-0.001,-0.001,-0.004,-0.001,-0.001,-0.004,0.0,0.0,0.556,0.023,23.724,0.0,0.034,1.031,0.0,0.0,0.0,-0.103,-0.0,0.0,0.151,-0.0,-0.0,-0.067,-0.0,-0.0,0.001,-0.004,0.0,0.0,31.882,30.681,0.094,599.149
4.834,-195.197,398.166,0.0,31.864,-0.926,0.0,0.0,0.0,0.023,1.0,-0.0,0.0,-0.006,-78.389,6064.272,0.0,4.263,-0.0,-0.001,-0.001,-0.004,-0.001,-0.001,-0.004,0.0,0.0,0.556,0.023,23.722,0.0,0.033,1.03,0.0,0.0,0.0,-0.103,-0.0,0.0,0.151,-0.0,-0.0,-0.067,-0.0,-0.0,0.001,-0.005,0.0,0.0,31.88,30.679,0.094,599.065
4.924,-192.868,398.1,0.0,31.855,-0.904,0.0,0.0,0.0,0.022,1.0,-0.0,0.0,-0.008,-78.389,6064.272,0.0,4.263,-0.0,-0.001,-0.001,-0.004,-0.001,-0.001,-0.004,0.0,0.0,0.556,0.023,23.722,0.0,0.033,1.03,0.0,0.0,0.0,-0.103,-0.0,0.0,0.151,-0.0,-0.0,-0.067,-0.0,-0.0,0.001,-0.005,0.0,0.0,31.88,30.679,0.094,599.065
4.939,-194.716,398.152,0.0,31.862,-0.921,0.0,0.0,0.0,0.023,1.0,-0.0,0.0,-0.006,-79.282,6057.454,0.0,4.251,-0.0,-0.001,-0.001,-0.004,-0.001,-0.001,-0.004,0.0,0.0,0.555,0.023,23.72,0.0,0.033,1.029,0.0,0.0,0.0,-0.103,-0.0,0.0,0.151,-0.0,-0.0,-0.067,-0.0,-0.0,0.001,-0.006,0.0,0.0,31.878,30.677,0.094,598.978
4.952,-192.457,398.088,0.0,31.853,-0.901,0.0,-0.0,0.0,0.022,1.0,-0.0,0.0,-0.009,-82.954,6013.154,0.0,4.194,-0.0,-0.001,-0.001,-0.004,-0.001,-0.001,-0.004,0.0,0.0,0.552,0.023,23.704,0.0,0.032,1.022,0.0,0.0,0.0,-0.102,-0.0,0.0,0.151,-0.0,-0.0,-0.066,0.0,-0.0,0.001,-0.008,-0.0,0.0,31.868,30.668,0.094,598.598
4.967,-191.976,398.074,0.0,31.851,-0.898,0.0,-0.0,0.0,0.022,1.0,-0.0,0.0,-0.009,-83.362,6001.722,0.0,4.177,-0.0,-0.001,-0.001,-0.004,-0.001,-0.001,-0.004,0.0,0.0,0.55,0.023,23.699,0.0,0.031,1.02,0.0,0.0,0.0,-0.102,-0.0,0.0,0.151,-0.0,-0.0,-0.066,0.0,-0.0,0.001,-0.009,-0.0,0.0,31.866,30.666,0.094,598.528
4.983,-191.444,398.059,0.0,31.849,-0.895,0.0,-0.0,0.0,0.022,1.0,-0.0,0.0,-0.01,-83.801,5989.953,0.0,4.16,-0.0,-0.001,-0.001,-0.004,-0.001,-0.001,-0.004,0.0,0.0,0.55,0.023,23.694,0.0,0.031,1.018,0.0,0.0,0.0,-0.102,-0.0,0.0,0.151,-0.0,-0.0,-0.065,0.0,-0.0,0.001,-0.009,-0.0,0.0,31.864,30.664,0.094,598.446
5.0,-190.916,398.044,0.0,31.846,-0.893,0.0,-0.0,0.0,0.022,1.0,-0.0,0.0,-0.01,-84.218,5978.238,0.0,4.142,-0.0,-0.001,-0.001,-0.004,-0.001,-0.001,-0.004,0.0,0.0,0.548,0.023,23.69,0.0,0.031,1.016,0.0,0.0,0.0,-0.102,-0.0,0.0,0.151,-0.0,-0.0,-0.065,0.0,-0.0,0.002,-0.01,-0.0,0.0,31.861,30.661,0.094,598.358
5.017,-190.384,398.03,0.0,31.844,-0.89,0.0,-0.0,0.0,0.022,1.0,-0.0,0.0,-0.011,-84.582,5966.883,0.0,4.125,-0.0,-0.001,-0.001,-0.004,-0.001,-0.001,-0.004,0.0,0.0,0.548,0.023,23.685,0.0,0.03,1.014,0.0,0.0,0.0,-0.101,-0.0,0.0,0.151,-0.0,-0.0,-0.065,0.0,-0.0,0.002,-0.01,-0.0,0.0,31.859,30.659,0.094,598.27
5.033,-189.852,398.015,0.0,31.842,-0.888,0.0,-0.0,0.0,0.022,1.0,-0.0,0.0,-0.011,-84.89,5955.852,0.0,4.108,-0.0,-0.001,-0.001,-0.004,-0.001,-0.001,-0.004,0.0,0.0,0.547,0.023,23.681,0.0,0.03,1.012,0.0,0.0,0.0,-0.101,-0.0,0.0,0.151,-0.0,-0.0,-0.065,0.0,-0.0,0.002,-0.011,-0.0,0.0,31.856,30.657,0.094,598.178
5.05,-189.32,398.0,0.0,31.839,-0.887,0.0,-0.0,0.0,0.022,1.0,-0.0,0.0,-0.012,-85.146,5945.181,0.0,4.097,-0.0,-0.001,-0.001,-0.004,-0.001,-0.001,-0.004,0.0,0.0,0.546,0.023,23.676,0.0,0.03,1.01,0.0,0.0,0.0,-0.101,-0.0,0.0,0.151,-0.0,-0.0,-0.064,0.0,-0.0,0.002,-0.011,-0.0,0.0,31.854,30.654,0.094,598.087
5.067,-188.792,397.985,0.0,31.837,-0.885,0.0,-0.0,0.0,0.022,1.0,-0.0,0.0,-0.012,-85.348,5934.869,0.0,4.079,-0.0,-0.001,-0.001,-0.004,-0.001,-0.001,-0.004,0.0,0.0,0.545,0.023,23.672,0.0,0.029,1.008,0.0,0.0,0.0,-0.101,-0.0,0.0,0.151,-0.0,-0.0,-0.064,0.0,-0.0,0.002,-0.012,-0.0,0.0,31.852,30.652,0.094,597.996
5.084,-188.254,397.97,0.0,31.834,-0.884,0.0,-0.0,0.0,0.022,1.0,-0.0,0.0,-0.012,-85.497,5924.916,0.0,4.068,-0.0,-0.001,-0.001,-0.004,-0.001,-0.001,-0.004,0.0,0.0,0.544,0.023,23.668,0.0,0.029,1.007,0.0,0.0,0.0,-0.101,-0.0,0.0,0.151,-0.0,-0.0,-0.064,0.0,-0.0,0.002,-0.012,-0.0,0.0,31.849,30.65,0.094,597.905
5.1,-187.732,397.956,0.0,31.832,-0.883,0.0,-0.0,0.0,0.021,1.0,-0.0,0.0,-0.013,-85.611,5915.203,0.0,4.057,-0.0,-0.001,-0.001,-0.004,-0.001,-0.001,-0.004,0.0,0.0,0.543,0.023,23.664,0.0,0.029,1.005,0.0,0.0,0.0,-0.101,-0.0,0.0,0.151,-0.0,-0.0,-0.064,0.0,-0.0,0.002,-0.012,-0.0,0.0,31.847,30.648,0.094,597.815
5.117,-187.204,397.941,0.0,31.83,-0.882,0.0,-0.0,0.0,0.021,1.0,-0.0,0.0,-0.013,-85.673,5905.883,0.0,4.039,-0.0,-0.001,-0.001,-0.004,-0.001,-0.001,-0.004,0.0,0.0,0.542,0.023,23.66,0.0,0.028,1.003,0.0,0.0,0.0,-0.1,-0.0,0.0,0.151,-0.0,-0.0,-0.064,0.0,-0.0,0.002,-0.013,-0.0,0.0,31.844,30.645,0.094,597.728
5.133,-186.669,397.926,0.0,31.827,-0.882,0.0,-0.0,0.0,0.021,1.0,-0.0,0.0,-0.014,-85.682,5896.887,0.0,4.028,-0.0,-0.001,-0.001,-0.004,-0.001,-0.001,-0.004,0.0,0.0,0.542,0.023,23.656,0.0,0.028,1.002,0.0,0.0,0.0,-0.1,-0.0,0.0,0.151,-0.0,-0.0,-0.063,0.0,-0.0,0.002,-0.013,-0.0,0.0,31.842,30.643,0.094,597.638
5.15,-186.137,397.912,0.0,31.825,-0.882,0.0,-0.0,0.0,0.021,1.0,-0.0,0.0,-0.014,-85.657,5888.132,0.0,4.016,-0.0,-0.001,-0.001,-0.004,-0.001,-0.001,-0.004,0.0,0.0,0.541,0.023,23.652,0.0,0.028,1.0,0.0,0.0,0.0,-0.1,-0.0,0.0,0.151,-0.0,-0.0,-0.063,0.0,-0.0,0.002,-0.014,-0.0,0.0,31.84,30.641,0.094,597.549
5.167,-185.606,397.897,0.0,31.822,-0.882,0.0,-0.0,0.0,0.021,1.0,-0.0,0.0,-0.014,-85.579,5879.735,0.0,4.005,-0.0,-0.001,-0.001,-0.004,-0.001,-0.001,-0.004,0.0,0.0,0.54,0.023,23.648,0.0,0.028,0.999,0.0,0.0,0.0,-0.1,-0.0,0.0,0.151,-0.0,-0.0,-0.063,0.0,-0.0,0.002,-0.014,-0.0,0.0,31.837,30.639,0.094,597.459
5.183,-185.074,397.882,0.0,31.82,-0.882,0.0,-0.0,0.0,0.021,1.0,-0.0,0.0,-0.015,-85.468,5871.577,0.0,3.994,-0.0,-0.001,-0.001,-0.004,-0.001,-0.001,-0.004,0.0,0.0,0.54,0.023,23.645,0.0,0.027,0.998,0.0,0.0,0.0,-0.1,-0.0,0.0,0.151,-0.0,-0.0,-0.063,0.0,-0.0,0.002,-0.014,-0.0,0.0,31.835,30.636,0.094,597.37
5.2,-184.549,397.868,0.0,31.818,-0.883,0.0,-0.0,0.0,0.021,1.0,-0.0,0.0,-0.015,-85.322,5863.66,0.0,3.982,-0.0,-0.001,-0.001,-0.004,-0.001,-0.001,-0.004,0.0,0.0,0.539,0.023,23.641,0.0,0.027,0.996,0.0,0.0,0.0,-0.1,-0.0,0.0,0.151,-0.0,-0.0,-0.063,0.0,-0.0,0.002,-0.015,-0.0,0.0,31.832,30.634,0.094,597.282
5.217,-184.018,397.853,0.0,31.815,-0.884,0.0,-0.0,0.0,0.021,1.0,-0.0,0.0,-0.015,-85.126,5856.134,0.0,3.971,-0.0,-0.001,-0.001,-0.004,-0.001,-0.001,-0.004,0.0,0.0,0.538,0.023,23.638,0.0,0.027,0.995,0.0,0.0,0.0,-0.1,-0.0,0.0,0.151,-0.0,-0.0,-0.062,0.0,-0.0,0.002,-0.015,-0.0,0.0,31.83,30.632,0.094,597.197
5.233,-183.487,397.838,0.0,31.813,-0.885,0.0,-0.0,0.0,0.021,1.0,-0.0,0.0,-0.016,-84.894,5848.814,0.0,3.965,-0.0,-0.001,-0.001,-0.004,-0.001,-0.001,-0.004,0.0,0.0,0.538,0.023,23.635,0.0,0.027,0.994,0.0,0.0,0.0,-0.1,-0.0,0.0,0.151,-0.0,-0.0,-0.062,0.0,-0.0,0.002,-0.015,-0.0,0.0,31.828,30.63,0.094,597.108
5.25,-182.959,397.823,0.0,31.811,-0.886,0.0,-0.0,0.0,0.02,1.0,-0.0,0.0,-0.016,-84.629,5841.734,0.0,3.953,-0.0,-0.001,-0.001,-0.004,-0.001,-0.001,-0.004,0.0,0.0,0.537,0.023,23.631,0.0,0.026,0.993,0.0,0.0,0.0,-0.1,-0.0,0.0,0.151,-0.0,-0.0,-0.062,0.0,-0.0,0.002,-0.016,-0.0,0.0,31.825,30.627,0.094,597.02
5.267,-182.428,397.808,0.0,31.808,-0.887,0.0,-0.0,0.0,0.02,1.0,-0.0,0.0,-0.016,-84.331,5834.926,0.0,3.942,-0.0,-0.001,-0.001,-0.004,-0.001,-0.001,-0.004,0.0,0.0,0.537,0.023,23.628,0.0,0.026,0.991,0.0,0.0,0.0,-0.099,-0.0,0.0,0.151,-0.0,-0.0,-0.062,0.0,-0.0,0.002,-0.016,-0.0,0.0,31.823,30.625,0.094,596.936
5.283,-181.896,397.794,0.0,31.806,-0.889,0.0,-0.0,0.0,0.02,1.0,-0.0,0.0,-0.016,-83.999,5828.358,0.0,3.936,-0.0,-0.001,-0.001,-0.004,-0.001,-0.001,-0.004,0.0,0.0,0.536,0.023,23.625,0.0,0.026,0.99,0.0,0.0,0.0,-0.099,-0.0,0.0,0.151,-0.0,-0.0,-0.062,0.0,-0.0,0.002,-0.016,-0.0,0.0,31.821,30.623,0.094,596.852
5.3,-181.368,397.779,0.0,31.804,-0.891,0.0,-0.0,0.0,0.02,1.0,-0.0,0.0,-0.017,-83.651,5821.91,0.0,3.925,-0.0,-0.001,-0.001,-0.004,-0.001,-0.001,-0.004,0.0,0.0,0.536,0.023,23.622,0.0,0.026,0.989,0.0,0.0,0.0,-0.099,-0.0,0.0,0.151,-0.0,-0.0,-0.062,0.0,-0.0,0.002,-0.016,-0.0,0.0,31.818,30.621,0.094,596.768
5.317,-180.837,397.764,0.0,31.802,-0.892,0.0,-0.0,0.0,0.02,1.0,-0.0,0.0,-0.017,-83.269,5815.702,0.0,3.919,-0.0,-0.001,-0.001,-0.004,-0.001,-0.001,-0.004,0.0,0.0,0.535,0.023,23.62,0.0,0.026,0.988,0.0,0.0,0.0,-0.099,-0.0,0.0,0.151,-0.0,-0.0,-0.062,0.0,-0.0,0.002,-0.017,-0.0,0.0,31.816,30.619,0.094,596.685
5.333,-180.309,397.749,0.0,31.799,-0.895,0.0,-0.0,0.0,0.02,1.0,-0.0,0.0,-0.017,-82.854,5809.732,0.0,3.913,-0.0,-0.001,-0.001,-0.004,-0.001,-0.001,-0.004,0.0,0.0,0.535,0.023,23.617,0.0,0.026,0.987,0.0,0.0,0.0,-0.099,-0.0,0.0,0.151,-0.0,-0.0,-0.061,0.0,-0.0,0.002,-0.017,-0.0,0.0,31.814,30.617,0.094,596.601
5.35,-179.775,397.734,0.0,31.797,-0.897,0.0,-0.0,0.0,0.02,1.0,-0.0,0.0,-0.017,-82.404,5804.002,0.0,3.902,-0.0,-0.001,-0.001,-0.004,-0.001,-0.001,-0.004,0.0,0.0,0.534,0.023,23.614,0.0,0.025,0.986,0.0,0.0,0.0,-0.099,-0.0,0.0,0.151,-0.0,-0.0,-0.061,0.0,-0.0,0.003,-0.017,-0.0,0.0,31.812,30.615,0.094,596.518
5.367,-179.247,397.719,0.0,31.795,-0.899,0.0,-0.0,0.0,0.02,1.0,-0.0,0.0,-0.018,-81.939,5798.392,0.0,3.896,-0.0,-0.001,-0.001,-0.004,-0.001,-0.001,-0.004,0.0,0.0,0.534,0.023,23.612,0.0,0.025,0.985,0.0,0.0,0.0,-0.099,-0.0,0.0,0.151,-0.0,-0.0,-0.061,0.0,-0.0,0.003,-0.017,-0.0,0.0,31.81,30.613,0.094,596.435
5.383,-178.716,397.704,0.0,31.792,-0.902,0.0,-0.0,0.0,0.02,1.0,-0.0,0.0,-0.018,-81.44,5793.021,0.0,3.89,-0.0,-0.001,-0.001,-0.004,-0.001,-0.001,-0.004,0.0,0.0,0.533,0.023,23.609,0.0,0.025,0.984,0.0,0.0,0.0,-0.099,-0.0,0.0,0.151,-0.0,-0.0,-0.061,0.0,-0.0,0.003,-0.018,-0.0,0.0,31.807,30.61,0.094,596.352
5.4,-178.189,397.689,0.0,31.79,-0.904,0.0,-0.0,0.0,0.02,1.0,-0.0,0.0,-0.018,-80.924,5787.771,0.0,3.879,-0.0,-0.001,-0.001,-0.004,-0.001,-0.001,-0.004,0.0,0.0,0.533,0.023,23.607,0.0,0.025,0.983,0.0,0.0,0.0,-0.099,-0.0,0.0,0.151,-0.0,-0.0,-0.061,0.0,-0.0,0.003,-0.018,-0.0,0.0,31.805,30.608,0.094,596.27
5.417,-177.658,397.674,0.0,31.788,-0.907,0.0,-0.0,0.0,0.019,1.0,-0.0,0.0,-0.018,-80.377,5782.792,0.0,3.873,-0.0,-0.001,-0.001,-0.004,-0.001,-0.001,-0.004,0.0,0.0,0.532,0.023,23.604,0.0,0.025,0.983,0.0,0.0,0.0,-0.099,-0.0,0.0,0.151,-0.0,-0.0,-0.061,0.0,-0.0,0.003,-0.018,-0.0,0.0,31.803,30.606,0.094,596.191
5.433,-177.127,397.659,0.0,31.786,-0.91,0.0,-0.0,0.0,0.019,1.0,-0.0,0.0,-0.018,-79.752,5770.473,0.0,3.856,-0.0,-0.001,-0.001,-0.004,-0.001,-0.001,-0.004,0.0,0.0,0.532,0.022,23.598,0.0,0.024,0.98,0.0,0.0,0.0,-0.098,-0.0,0.0,0.151,-0.0,-0.0,-0.061,0.0,-0.0,0.003,-0.018,-0.0,0.0,31.801,30.604,0.094,596.112
5.45,-176.599,397.644,0.0,31.784,-0.914,0.0,-0.0,0.0,0.019,1.0,-0.0,0.0,-0.019,-79.062,5758.631,0.0,3.839,-0.0,-0.001,-0.001,-0.004,-0.001,-0.001,-0.004,0.0,0.0,0.53,0.022,23.592,0.0,0.024,0.978,0.0,0.0,0.0,-0.098,-0.0,0.0,0.151,-0.0,-0.0,-0.06,0.0,-0.0,0.003,-0.018,-0.0,0.0,31.799,30.602,0.094,596.034
5.467,-176.068,397.628,0.0,31.781,-0.918,0.0,-0.0,0.0,0.019,1.0,-0.0,0.0,-0.019,-78.324,5747.148,0.0,3.822,-0.0,-0.001,-0.001,-0.004,-0.001,-0.001,-0.004,0.0,0.0,0.529,0.022,23.586,0.0,0.024,0.976,0.0,0.0,0.0,-0.098,-0.0,0.0,0.151,-0.0,-0.0,-0.06,0.0,-0.0,0.003,-0.019,-0.0,0.0,31.797,30.6,0.094,595.956
5.483,-175.541,397.613,0.0,31.779,-0.922,0.0,-0.0,0.0,0.019,1.0,-0.0,0.0,-0.019,-77.537,5736.025,0.0,3.81,-0.0,-0.001,-0.001,-0.004,-0.001,-0.001,-0.004,0.0,0.0,0.528,0.022,23.58,0.0,0.024,0.975,0.0,0.0,0.0,-0.098,-0.0,0.0,0.151,-0.0,-0.0,-0.06,0.0,-0.0,0.003,-0.019,-0.0,0.0,31.794,30.598,0.094,595.879
5.5,-175.007,397.598,0.0,31.777,-0.926,0.0,-0.0,0.0,0.018,1.0,-0.0,0.0,-0.019,-76.703,5725.293,0.0,3.793,-0.0,-0.001,-0.001,-0.004,-0.001,-0.001,-0.004,0.0,0.0,0.528,0.022,23.574,0.0,0.023,0.973,0.0,0.0,0.0,-0.098,-0.0,0.0,0.151,-0.0,-0.0,-0.06,0.0,-0.0,0.003,-0.019,-0.0,0.0,31.793,30.597,0.094,595.806
5.517,-174.48,397.582,0.0,31.775,-0.931,0.0,-0.0,0.0,0.018,1.0,-0.0,0.0,-0.019,-75.821,5714.92,0.0,3.776,-0.0,-0.001,-0.001,-0.004,-0.001,-0.001,-0.004,0.0,0.0,0.527,0.022,23.568,0.0,0.023,0.971,0.0,0.0,0.0,-0.098,-0.0,0.0,0.151,-0.0,-0.0,-0.059,0.0,-0.0,0.003,-0.019,-0.0,0.0,31.791,30.595,0.094,595.733
5.533,-173.952,397.567,0.0,31.773,-0.936,0.0,-0.0,0.0,0.018,1.0,-0.0,0.0,-0.019,-74.891,5704.906,0.0,3.764,-0.0,-0.001,-0.001,-0.004,-0.001,-0.001,-0.004,0.0,0.0,0.526,0.022,23.562,0.0,0.023,0.969,0.0,0.0,0.0,-0.097,-0.0,0.0,0.151,-0.0,-0.0,-0.059,0.0,-0.0,0.003,-0.019,-0.0,0.0,31.789,30.593,0.094,595.66
5.55,-173.422,397.551,0.0,31.771,-0.941,0.0,-0.0,0.0,0.018,1.0,-0.0,0.0,-0.019,-73.913,5695.251,0.0,3.747,-0.0,-0.001,-0.001,-0.004,-0.001,-0.001,-0.004,0.0,0.0,0.525,0.022,23.557,0.0,0.022,0.968,0.0,0.0,0.0,-0.097,-0.0,0.0,0.151,-0.0,-0.0,-0.059,0.0,-0.0,0.003,-0.019,-0.0,0.0,31.787,30.591,0.094,595.588
5.567,-172.891,397.535,0.0,31.769,-0.947,0.0,-0.0,0.0,0.018,1.0,-0.0,0.0,-0.019,-72.888,5685.954,0.0,3.736,-0.0,-0.001,-0.001,-0.004,-0.001,-0.001,-0.004,0.0,0.0,0.524,0.022,23.552,0.0,0.022,0.966,0.0,0.0,0.0,-0.097,-0.0,0.0,0.151,-0.0,-0.0,-0.059,0.0,-0.0,0.003,-0.019,-0.0,0.0,31.785,30.589,0.094,595.516
5.583,-172.357,397.519,0.0,31.767,-0.952,0.0,-0.0,0.0,0.017,1.0,-0.0,0.0,-0.02,-71.832,5676.929,0.0,3.724,-0.0,-0.001,-0.001,-0.004,-0.001,-0.001,-0.004,0.0,0.0,0.523,0.022,23.547,0.0,0.022,0.965,0.0,0.0,0.0,-0.097,-0.0,0.0,0.151,-0.0,-0.0,-0.058,0.0,-0.0,0.003,-0.019,-0.0,0.0,31.783,30.588,0.094,595.448
5.6,-171.833,397.504,0.0,31.765,-0.958,0.0,-0.0,0.0,0.017,1.0,-0.0,0.0,-0.02,-70.728,5668.263,0.0,3.713,-0.0,-0.001,-0.001,-0.004,-0.001,-0.001,-0.004,0.0,0.0,0.523,0.022,23.542,0.0,0.022,0.963,0.0,0.0,0.0,-0.097,-0.0,0.0,0.151,-0.0,-0.0,-0.058,0.0,-0.0,0.003,-0.02,-0.0,0.0,31.781,30.586,0.094,595.38
5.617,-171.303,397.487,0.0,31.763,-0.965,0.0,-0.0,0.0,0.017,1.0,-0.0,0.0,-0.02,-69.612,5659.75,0.0,3.701,-0.0,-0.001,-0.001,-0.004,-0.001,-0.001,-0.004,0.0,0.0,0.522,0.022,23.537,0.0,0.021,0.962,0.0,0.0,0.0,-0.097,-0.0,0.0,0.151,-0.0,-0.0,-0.058,0.0,-0.0,0.003,-0.02,-0.0,0.0,31.779,30.584,0.094,595.317
5.633,-170.772,397.471,0.0,31.761,-0.971,0.0,-0.0,0.0,0.017,1.0,0.001,-0.0,-0.02,-68.448,5651.595,0.0,3.69,-0.0,-0.001,0.136,-0.004,-0.001,0.066,-0.004,0.0,0.0,0.521,0.022,23.532,0.0,0.021,0.96,0.0,0.0,0.0,-0.096,0.007,-0.001,0.151,-0.0,-0.0,-0.058,0.0,-0.0,0.003,-0.02,-0.0,0.0,31.778,30.583,0.094,595.254
5.65,-170.242,397.455,0.0,31.759,-0.978,0.0,0.0,0.0,0.017,1.0,0.004,-0.0,-0.02,-67.236,5643.799,0.0,3.678,-0.0,-0.001,0.136,-0.004,-0.001,0.133,-0.004,0.0,0.0,0.521,0.022,23.527,0.0,0.021,0.959,0.0,0.0,0.0,-0.096,0.013,-0.002,0.151,-0.0,-0.0,-0.058,-0.0,-0.0,0.003,-0.02,0.001,0.0,31.776,30.581,0.094,595.191
5.667,-169.715,397.439,0.0,31.757,-0.985,0.0,0.0,-0.0,0.016,1.0,0.006,-0.001,-0.02,-65.994,5636.242,0.0,3.667,-0.0,-0.001,0.136,-0.004,-0.001,0.136,-0.004,0.0,0.0,0.52,0.022,23.523,0.0,0.021,0.958,0.0,0.0,0.0,-0.096,0.014,-0.003,0.151,-0.0,-0.0,-0.058,-0.0,0.0,0.003,-0.02,0.004,-0.0,31.774,30.579,0.094,595.128
5.683,-169.187,397.422,0.0,31.756,-0.992,0.0,0.0,-0.0,0.016,1.0,0.01,-0.002,-0.019,-64.721,5628.956,0.0,3.655,-0.0,-0.032,0.429,-0.004,-0.032,0.202,-0.004,0.0,0.0,0.519,0.022,23.518,0.0,0.02,0.956,0.0,0.0,0.0,-0.096,0.02,-0.004,0.173,-0.0,-0.0,-0.057,-0.001,0.0,0.003,-0.02,0.006,-0.001,31.773,30.578,0.094,595.07
5.7,-168.657,397.406,0.0,31.754,-0.999,0.0,0.0,-0.0,0.016,1.0,0.015,-0.003,-0.018,-63.417,5621.909,0.992,3.644,-0.0,-0.032,0.429,-0.004,-0.032,0.269,-0.004,0.0,0.0,0.519,0.022,23.514,0.0,0.02,0.955,-0.0,0.0,0.0,-0.096,0.027,-0.005,0.173,-0.0,-0.0,-0.057,-0.001,0.0,0.003,-0.019,0.01,-0.002,31.771,30.576,0.094,595.012
5.717,-168.127,397.389,0.0,31.752,-1.007,0.0,0.0,-0.0,0.016,1.0,0.022,-0.004,-0.017,-62.083,5615.102,1.982,3.638,-0.0,-0.032,0.429,-0.004,-0.032,0.336,-0.004,0.0,0.0,0.518,0.022,23.51,0.0,0.02,0.954,-0.0,0.0,0.0,-0.096,0.034,-0.007,0.173,-0.0,-0.0,-0.057,-0.002,0.0,0.003,-0.018,0.015,-0.003,31.77,30.575,0.094,594.954
5.733,-167.597,397.372,0.0,31.75,-1.014,0.0,0.0,-0.0,0.016,1.0,0.029,-0.006,-0.015,-60.718,5608.565,2.924,3.627,-0.0,-0.106,0.658,-0.004,-0.099,0.403,-0.004,0.0,0.0,0.518,0.022,23.506,0.0,0.02,0.953,-0.0,0.0,0.0,-0.096,0.04,-0.008,0.219,-0.0,-0.0,-0.057,-0.003,0.0,0.003,-0.017,0.022,-0.004,31.768,30.574,0.094,594.9
5.75,-167.07,397.355,0.0,31.749,-1.022,0.0,0.001,-0.0,0.016,1.0,0.037,-0.007,-0.013,-59.351,5609.713,4.858,3.627,-0.006,-0.106,0.658,-0.004,-0.106,0.469,-0.004,0.0,0.0,0.518,0.022,23.507,0.0,0.02,0.953,-0.0,0.0,0.0,-0.096,0.047,-0.009,0.225,-0.0,-0.0,-0.057,-0.004,0.0,0.002,-0.015,0.029,-0.006,31.767,30.572,0.094,594.847
5.767,-166.539,397.338,0.0,31.747,-1.03,0.0,0.001,-0.0,0.016,1.0,0.047,-0.009,-0.01,-58.001,5610.773,6.792,3.633,-0.006,-0.106,0.658,-0.004,-0.106,0.536,-0.004,0.0,0.0,0.518,0.022,23.508,0.0,0.02,0.953,-0.0,0.0,0.0,-0.096,0.054,-0.011,0.225,-0.0,-0.0,-0.057,-0.005,0.0,0.002,-0.013,0.037,-0.007,31.765,30.571,0.094,594.797
5.783,-166.009,397.321,0.0,31.746,-1.037,0.001,0.001,-0.0,0.015,1.0,0.058,-0.012,-0.008,-56.651,5611.833,12.458,3.633,0.006,-0.106,0.672,-0.004,-0.106,0.603,-0.004,0.0,0.0,0.518,0.022,23.509,-0.0,0.02,0.954,0.0,0.0,0.0,-0.096,0.06,-0.012,0.225,0.0,0.0,-0.057,-0.006,0.0,0.002,-0.01,0.047,-0.009,31.764,30.57,0.094,594.747
5.8,-165.482,397.303,0.0,31.744,-1.045,0.001,0.002,-0.0,0.015,1.0,0.069,-0.014,-0.006,-55.304,5612.889,19.067,3.638,0.011,-0.106,0.672,-0.004,-0.106,0.669,-0.004,0.0,0.0,0.518,0.022,23.51,-0.0,0.02,0.954,0.001,0.0,0.0,-0.096,0.067,-0.013,0.225,0.0,0.0,-0.057,-0.008,0.001,0.001,-0.008,0.058,-0.012,31.762,30.568,0.094,594.698
5.817,-164.952,397.286,0.0,31.743,-1.052,0.002,0.002,-0.0,0.015,1.0,0.081,-0.017,-0.003,-53.978,5613.852,26.576,3.638,0.023,-0.106,0.672,-0.004,-0.106,0.672,-0.004,0.0,0.0,0.518,0.022,23.51,-0.0,0.02,0.954,0.001,0.0,0.0,-0.096,0.067,-0.013,0.225,0.0,0.0,-0.057,-0.009,0.001,0.001,-0.006,0.069,-0.014,31.761,30.567,0.094,594.652
5.833,-164.422,397.268,0.0,31.741,-1.059,0.003,0.003,-0.0,0.015,1.0,0.092,-0.019,-0.001,-52.673,5622.248,35.015,3.65,0.029,-0.085,0.672,-0.004,-0.085,0.672,-0.004,0.0,0.0,0.519,0.022,23.516,-0.001,0.02,0.955,0.001,0.0,0.0,-0.096,0.067,-0.013,0.21,0.0,0.0,-0.057,-0.011,0.001,0.0,-0.003,0.081,-0.017,31.76,30.566,0.094,594.606
5.85,-163.895,397.251,0.0,31.74,-1.066,0.004,0.004,-0.001,0.015,1.0,0.103,-0.022,0.001,-51.402,5630.39,44.324,3.667,0.034,-0.085,0.672,-0.004,-0.085,0.672,-0.004,0.0,0.0,0.52,0.022,23.521,-0.001,0.02,0.957,0.001,0.0,0.0,-0.096,0.067,-0.013,0.21,0.0,0.0,-0.058,-0.012,0.001,0.0,-0.001,0.092,-0.019,31.759,30.565,0.094,594.56
5.867,-163.365,397.233,0.0,31.738,-1.073,0.006,0.005,-0.001,0.015,1.0,0.114,-0.024,0.002,-50.181,5638.186,54.551,3.678,0.04,-0.085,0.672,-0.004,-0.085,0.672,-0.004,0.0,0.0,0.521,0.022,23.526,-0.001,0.021,0.958,0.002,0.0,0.0,-0.096,0.067,-0.013,0.21,0.0,0.0,-0.058,-0.014,0.001,-0.0,0.001,0.103,-0.022,31.758,30.564,0.094,594.517
5.883,-162.838,397.215,0.0,31.737,-1.08,0.008,0.006,-0.001,0.015,1.0,0.124,-0.026,0.005,-49.017,5645.726,68.441,3.69,0.052,-0.106,0.672,-0.004,-0.106,0.672,-0.004,0.0,0.0,0.521,0.022,23.53,-0.001,0.021,0.959,0.002,0.0,0.0,-0.097,0.067,-0.013,0.225,0.0,0.0,-0.058,-0.015,0.001,-0.0,0.002,0.114,-0.024,31.756,30.563,0.094,594.474
5.9,-162.305,397.197,0.0,31.736,-1.086,0.01,0.007,-0.001,0.015,1.0,0.134,-0.028,0.007,-47.895,5653.008,82.172,3.701,0.069,-0.106,0.672,-0.004,-0.106,0.672,-0.004,0.0,0.0,0.522,0.022,23.533,-0.002,0.021,0.961,0.003,0.0,0.0,-0.097,0.067,-0.013,0.225,0.0,0.0,-0.058,-0.016,0.001,-0.001,0.005,0.124,-0.026,31.755,30.562,0.094,594.431
5.917,-161.782,397.179,0.001,31.734,-1.092,0.013,0.008,-0.001,0.015,1.0,0.144,-0.031,0.009,-46.796,5660.164,96.738,3.713,0.08,-0.106,0.672,-0.004,-0.106,0.672,-0.004,0.0,0.0,0.523,0.022,23.536,-0.002,0.022,0.962,0.003,0.0,0.0,-0.097,0.067,-0.013,0.225,0.0,0.0,-0.058,-0.018,0.001,-0.001,0.007,0.134,-0.028,31.754,30.561,0.094,594.392
5.933,-161.248,397.16,0.001,31.733,-1.098,0.016,0.009,-0.002,0.016,1.0,0.153,-0.033,0.012,-45.768,5674.357,112.238,3.736,0.092,-0.106,0.672,-0.004,-0.106,0.672,-0.004,0.0,0.0,0.524,0.022,23.543,-0.002,0.022,0.964,0.004,0.0,0.0,-0.097,0.067,-0.013,0.225,0.0,0.0,-0.059,-0.019,0.002,-0.001,0.009,0.144,-0.031,31.753,30.56,0.094,594.352
5.95,-160.722,397.142,0.001,31.732,-1.104,0.019,0.01,-0.002,0.016,1.0,0.162,-0.035,0.014,-44.795,5688.135,128.601,3.759,0.103,-0.106,0.672,-0.004,-0.106,0.672,-0.004,0.0,0.0,0.526,0.022,23.55,-0.002,0.022,0.967,0.004,0.0,0.0,-0.097,0.067,-0.013,0.225,0.0,0.0,-0.059,-0.02,0.002,-0.002,0.012,0.153,-0.033,31.752,30.559,0.094,594.312
5.967,-160.192,397.124,0.002,31.731,-1.109,0.023,0.012,-0.002,0.016,1.0,0.172,-0.038,0.016,-43.969,5701.3,148.58,3.782,0.12,-0.106,0.672,-0.004,-0.106,0.672,-0.004,0.0,0.0,0.527,0.022,23.553,-0.003,0.023,0.969,0.005,0.0,0.0,-0.098,0.067,-0.013,0.225,0.0,0.0,-0.059,-0.022,0.002,-0.002,0.014,0.162,-0.035,31.751,30.558,0.094,594.276
5.983,-159.662,397.105,0.002,31.729,-1.114,0.028,0.013,-0.002,0.016,1.0,0.18,-0.04,0.018,-43.21,5714.03,169.387,3.804,0.143,-0.106,0.672,-0.004,-0.106,0.672,-0.004,0.0,0.0,0.528,0.022,23.556,-0.003,0.023,0.971,0.006,0.0,0.0,-0.098,0.067,-0.013,0.225,0.0,0.0,-0.06,-0.023,0.002,-0.002,0.016,0.172,-0.038,31.75,30.557,0.094,594.239
6.0,-159.132,397.086,0.002,31.728,-1.118,0.033,0.015,-0.003,0.016,1.0,0.189,-0.042,0.02,-42.536,5726.221,189.976,3.822,0.16,-0.106,0.672,-0.004,-0.106,0.672,-0.004,0.0,0.0,0.529,0.022,23.559,-0.004,0.024,0.973,0.007,0.0,0.0,-0.098,0.067,-0.013,0.225,0.001,0.0,-0.06,-0.024,0.002,-0.003,0.018,0.18,-0.04,31.749,30.556,0.094,594.201
6.017,-158.605,397.068,0.003,31.727,-1.122,0.039,0.016,-0.003,0.016,1.0,0.198,-0.044,0.022,-41.928,5737.952,211.35,3.839,0.172,-0.106,0.672,-0.004,-0.106,0.672,-0.004,0.0,0.0,0.53,0.022,23.561,-0.004,0.024,0.976,0.007,0.0,0.0,-0.098,0.067,-0.013,0.225,0.001,0.0,-0.06,-0.025,0.002,-0.003,0.02,0.189,-0.042,31.748,30.555,0.094,594.163
6.033,-158.078,397.049,0.004,31.726,-1.126,0.046,0.018,-0.003,0.016,1.0,0.206,-0.046,0.024,-41.412,5756.524,233.76,3.873,0.189,-0.106,0.672,-0.004,-0.106,0.672,-0.004,0.0,0.0,0.532,0.023,23.566,-0.004,0.025,0.979,0.008,0.0,0.0,-0.099,0.067,-0.013,0.225,0.001,0.0,-0.061,-0.026,0.002,-0.003,0.022,0.198,-0.044,31.747,30.554,0.094,594.125
6.05,-157.549,397.03,0.004,31.725,-1.128,0.053,0.02,-0.004,0.016,1.0,0.214,-0.048,0.026,-40.997,5774.437,255.942,3.902,0.201,-0.106,0.672,-0.004,-0.106,0.672,-0.004,0.0,0.0,0.534,0.023,23.572,-0.004,0.025,0.982,0.008,0.0,0.0,-0.099,0.067,-0.013,0.225,0.001,0.0,-0.061,-0.027,0.002,-0.004,0.024,0.206,-0.046,31.746,30.553,0.094,594.09
6.067,-157.019,397.011,0.005,31.724,-1.131,0.061,0.021,-0.004,0.017,1.0,0.222,-0.05,0.028,-40.786,5791.646,281.748,3.93,0.223,-0.106,0.672,-0.004,-0.106,0.672,-0.004,0.0,0.0,0.536,0.023,23.572,-0.005,0.026,0.985,0.009,0.0,0.0,-0.099,0.067,-0.013,0.225,0.001,0.001,-0.062,-0.028,0.002,-0.004,0.026,0.214,-0.048,31.745,30.552,0.094,594.054
6.083,-156.492,396.992,0.006,31.723,-1.133,0.069,0.023,-0.005,0.017,1.0,0.229,-0.052,0.03,-40.671,5808.215,308.341,3.959,0.241,-0.106,0.672,-0.004,-0.106,0.672,-0.004,0.0,0.0,0.538,0.023,23.572,-0.005,0.026,0.988,0.01,0.0,0.0,-0.1,0.067,-0.013,0.225,0.001,0.001,-0.062,-0.029,0.002,-0.004,0.028,0.222,-0.05,31.744,30.552,0.094,594.018
6.1,-155.962,396.974,0.008,31.722,-1.135,0.078,0.025,-0.005,0.017,1.0,0.237,-0.054,0.032,-40.673,5824.065,334.703,3.988,0.264,-0.106,0.672,-0.004,-0.106,0.672,-0.004,0.0,0.0,0.539,0.023,23.572,-0.006,0.027,0.991,0.011,0.0,0.0,-0.1,0.067,-0.013,0.225,0.001,0.001,-0.063,-0.03,0.003,-0.004,0.03,0.229,-0.052,31.743,30.551,0.094,593.982
6.117,-155.433,396.955,0.009,31.72,-1.136,0.088,0.027,-0.005,0.017,1.0,0.244,-0.056,0.034,-40.769,5839.363,361.853,4.011,0.281,-0.106,0.672,-0.004,-0.106,0.672,-0.004,0.0,0.0,0.541,0.023,23.571,-0.006,0.027,0.994,0.012,0.0,0.0,-0.1,0.067,-0.013,0.225,0.001,0.001,-0.063,-0.031,0.003,-0.005,0.032,0.237,-0.054,31.742,30.55,0.094,593.945
6.133,-154.903,396.936,0.011,31.719,-1.137,0.099,0.029,-0.006,0.018,1.0,0.251,-0.058,0.036,-40.986,5861.268,390.091,4.051,0.292,-0.106,0.672,-0.004,-0.106,0.672,-0.004,0.0,0.0,0.543,0.023,23.575,-0.006,0.028,0.998,0.012,0.0,0.0,-0.1,0.067,-0.013,0.225,0.001,0.001,-0.064,-0.032,0.003,-0.005,0.034,0.244,-0.056,31.741,30.549,0.094,593.907
6.15,-154.377,396.917,0.012,31.718,-1.137,0.111,0.031,-0.006,0.018,1.0,0.258,-0.06,0.038,-41.336,5882.288,418.098,4.085,0.309,-0.106,0.672,-0.004,-0.106,0.672,-0.004,0.0,0.0,0.545,0.023,23.578,-0.007,0.029,1.002,0.013,0.0,0.0,-0.101,0.067,-0.013,0.225,0.001,0.001,-0.064,-0.033,0.003,-0.005,0.036,0.251,-0.058,31.74,30.548,0.094,593.869
6.167,-153.847,396.898,0.014,31.717,-1.136,0.124,0.033,-0.007,0.018,1.0,0.265,-0.062,0.039,-41.977,5902.395,449.748,4.12,0.327,-0.106,0.672,-0.004,-0.106,0.672,-0.004,0.0,0.0,0.547,0.023,23.574,-0.007,0.03,1.006,0.014,0.0,0.0,-0.101,0.067,-0.013,0.225,0.001,0.001,-0.065,-0.034,0.003,-0.006,0.038,0.258,-0.06,31.739,30.547,0.094,593.831
6.183,-153.317,396.879,0.017,31.716,-1.135,0.137,0.036,-0.007,0.019,0.999,0.271,-0.064,0.041,-42.748,5921.586,482.15,4.154,0.35,-0.106,0.672,-0.004,-0.106,0.672,-0.004,0.0,0.0,0.549,0.023,23.571,-0.008,0.03,1.009,0.014,0.0,0.0,-0.102,0.067,-0.013,0.225,0.001,0.001,-0.065,-0.035,0.003,-0.006,0.039,0.265,-0.062,31.738,30.546,0.094,593.788
6.2,-152.791,396.86,0.019,31.715,-1.134,0.151,0.038,-0.008,0.019,0.999,0.278,-0.066,0.043,-43.65,5939.963,514.274,4.188,0.367,-0.106,0.672,-0.004,-0.106,0.672,-0.004,0.0,0.0,0.551,0.023,23.567,-0.008,0.031,1.013,0.015,0.0,0.0,-0.102,0.067,-0.013,0.225,0.001,0.001,-0.066,-0.036,0.003,-0.006,0.041,0.271,-0.064,31.736,30.545,0.094,593.745
6.217,-152.261,396.841,0.022,31.713,-1.132,0.166,0.04,-0.008,0.019,0.999,0.284,-0.068,0.044,-44.683,5957.415,547.193,4.217,0.384,-0.106,0.672,-0.004,-0.106,0.672,-0.004,0.0,0.0,0.553,0.024,23.564,-0.008,0.032,1.016,0.016,0.0,0.0,-0.102,0.067,-0.013,0.225,0.001,0.001,-0.066,-0.037,0.003,-0.006,0.043,0.278,-0.066,31.735,30.544,0.094,593.701
6.233,-151.732,396.822,0.025,31.712,-1.129,0.182,0.043,-0.009,0.02,0.999,0.29,-0.069,0.046,-45.858,5981.423,580.282,4.263,0.395,-0.106,0.672,-0.004,-0.106,0.672,-0.004,0.0,0.0,0.556,0.024,23.565,-0.009,0.032,1.021,0.016,0.0,0.0,-0.103,0.067,-0.013,0.225,0.001,0.001,-0.067,-0.038,0.003,-0.007,0.044,0.284,-0.068,31.734,30.542,0.094,593.658
6.25,-151.205,396.803,0.028,31.711,-1.126,0.2,0.045,-0.009,0.02,0.999,0.296,-0.071,0.047,-47.202,6004.171,614.11,4.303,0.407,-0.106,0.672,-0.004,-0.106,0.672,-0.004,0.0,0.0,0.558,0.024,23.566,-0.009,0.033,1.025,0.017,0.0,0.0,-0.103,0.067,-0.013,0.225,0.001,0.001,-0.068,-0.038,0.003,-0.007,0.046,0.29,-0.069,31.733,30.541,0.094,593.61
