time,LATITUDE_m,ALTITUDE_m,LONGITUDE_m,vx,VSI_ms,vz,qx,qy,qz,qw,wx,wy,wz,fx_global,fy_global,fz_global,alpha_DEG,beta_DEG,pitch_demand,roll_demand,yaw_demand,pitch_demand_attained,roll_demand_attained,yaw_demand_attained,thrust_setting_demand,thrust_attained,CL,CD,CL_CD_ratio,CS,nx,nz,ny,CM_roll_from_aero_forces,CM_yaw_from_aero_forces,CM_pitch_from_aero_forces,CM_roll_from_control,CM_yaw_from_control,CM_pitch_from_control,CM_roll_from_aero_stiffness,CM_yaw_from_aero_stiffness,CM_pitch_from_aero_stiffness,CM_roll_from_aero_damping,CM_yaw_from_aero_damping,CM_pitch_from_aero_damping,q_pitch_rate,p_roll_rate,r_yaw_rate,TAS,EAS,Mach,dynamic_pressure
3.017,-249.466,399.999,0.0,31.996,-0.072,0.0,0.0,0.0,0.0,1.0,-0.0,0.0,0.003,-158.254,3294.926,0.0,-0.0,-0.0,-0.001,-0.001,-0.004,-0.001,-0.001,-0.004,0.498,0.022,0.3,0.016,19.237,0.0,-0.027,0.56,0.0,0.0,0.0,-0.056,-0.0,0.0,0.151,-0.0,-0.0,0.0,-0.0,-0.0,-0.0,0.0,0.0,0.0,32.0,30.789,0.094,603.466
3.033,-249.469,399.999,0.0,31.996,-0.072,0.0,0.0,0.0,0.0,1.0,-0.0,0.0,0.003,-158.332,3294.926,0.0,-0.0,-0.0,-0.001,-0.001,-0.004,-0.001,-0.001,-0.004,0.498,0.022,0.3,0.016,19.237,0.0,-0.027,0.56,0.0,0.0,0.0,-0.056,-0.0,0.0,0.151,-0.0,-0.0,0.0,-0.0,-0.0,-0.0,0.0,0.0,0.0,32.0,30.789,0.094,603.466
3.05,-249.466,399.999,0.0,31.996,-0.072,0.0,0.0,0.0,0.0,1.0,-0.0,0.0,0.003,-158.254,3294.926,0.0,-0.0,-0.0,-0.001,-0.001,-0.004,-0.001,-0.001,-0.004,0.498,0.022,0.3,0.016,19.237,0.0,-0.027,0.56,0.0,0.0,0.0,-0.056,-0.0,0.0,0.151,-0.0,-0.0,0.0,-0.0,-0.0,-0.0,0.0,0.0,0.0,32.0,30.789,0.094,603.466
3.067,-249.466,399.999,0.0,31.996,-0.072,0.0,0.0,0.0,0.0,1.0,-0.0,0.0,0.003,-158.254,3294.926,0.0,-0.0,-0.0,-0.001,-0.001,-0.004,-0.001,-0.001,-0.004,0.498,0.022,0.3,0.016,19.237,0.0,-0.027,0.56,0.0,0.0,0.0,-0.056,-0.0,0.0,0.151,-0.0,-0.0,0.0,-0.0,-0.0,-0.0,0.0,0.0,0.0,32.0,30.789,0.094,603.466
3.083,-249.469,399.999,0.0,31.996,-0.072,0.0,0.0,0.0,0.0,1.0,-0.0,0.0,0.003,-158.332,3294.926,0.0,-0.0,-0.0,-0.001,-0.001,-0.004,-0.001,-0.001,-0.004,0.498,0.022,0.3,0.016,19.237,0.0,-0.027,0.56,0.0,0.0,0.0,-0.056,-0.0,0.0,0.151,-0.0,-0.0,0.0,-0.0,-0.0,-0.0,0.0,0.0,0.0,32.0,30.789,0.094,603.466
3.1,-249.466,399.999,0.0,31.996,-0.072,0.0,0.0,0.0,0.0,1.0,-0.0,0.0,0.003,-158.254,3294.926,0.0,-0.0,-0.0,-0.001,-0.001,-0.004,-0.001,-0.001,-0.004,0.498,0.022,0.3,0.016,19.237,0.0,-0.027,0.56,0.0,0.0,0.0,-0.056,-0.0,0.0,0.151,-0.0,-0.0,0.0,-0.0,-0.0,-0.0,0.0,0.0,0.0,32.0,30.789,0.094,603.466
3.117,-248.934,399.998,0.0,31.991,-0.141,0.0,0.0,0.0,0.0,1.0,-0.0,0.0,0.006,-152.627,3378.823,0.0,0.126,-0.0,-0.001,-0.001,-0.004,-0.001,-0.001,-0.004,0.498,0.022,0.308,0.016,19.504,0.0,-0.026,0.574,0.0,0.0,0.0,-0.057,-0.0,0.0,0.151,-0.0,-0.0,-0.002,-0.0,-0.0,-0.0,0.003,0.0,0.0,31.995,30.785,0.094,603.292
3.133,-248.931,399.998,0.0,31.991,-0.142,0.0,0.0,0.0,0.0,1.0,-0.0,0.0,0.006,-152.586,3379.395,0.0,0.132,-0.0,-0.001,-0.001,-0.004,-0.001,-0.001,-0.004,0.498,0.022,0.308,0.016,19.506,0.0,-0.026,0.574,0.0,0.0,0.0,-0.057,-0.0,0.0,0.151,-0.0,-0.0,-0.002,-0.0,-0.0,-0.0,0.003,0.0,0.0,31.995,30.785,0.094,603.288
3.15,-248.922,399.998,0.0,31.991,-0.143,0.0,0.0,0.0,0.0,1.0,-0.0,0.0,0.006,-152.398,3379.869,0.0,0.132,-0.0,-0.001,-0.001,-0.004,-0.001,-0.001,-0.004,0.498,0.022,0.308,0.016,19.508,0.0,-0.026,0.574,0.0,0.0,0.0,-0.057,-0.0,0.0,0.151,-0.0,-0.0,-0.002,-0.0,-0.0,-0.0,0.003,0.0,0.0,31.995,30.785,0.094,603.288
3.167,-248.941,399.998,0.0,31.992,-0.141,0.0,0.0,0.0,0.0,1.0,-0.0,0.0,0.006,-139.804,3379.478,0.0,0.132,-0.0,-0.001,-0.001,-0.004,-0.001,-0.001,-0.004,0.498,0.043,0.308,0.016,19.506,0.0,-0.024,0.574,0.0,0.0,0.0,-0.057,-0.0,0.0,0.151,-0.0,-0.0,-0.002,-0.0,-0.0,-0.0,0.003,0.0,0.0,31.996,30.785,0.094,603.303
3.183,-248.407,399.995,0.0,31.988,-0.208,0.0,0.0,0.0,0.0,1.0,-0.0,0.0,0.009,-121.094,3459.893,0.0,0.252,-0.0,-0.001,-0.001,-0.004,-0.001,-0.001,-0.004,0.498,0.065,0.315,0.016,19.752,0.0,-0.021,0.588,0.0,0.0,0.0,-0.058,-0.0,0.0,0.151,-0.0,-0.0,-0.004,-0.0,-0.0,-0.001,0.006,0.0,0.0,31.992,30.782,0.094,603.169
3.2,-247.876,399.991,0.0,31.986,-0.273,0.0,0.0,0.0,0.0,1.0,-0.0,0.0,0.012,-102.377,3546.77,0.0,0.384,-0.0,-0.001,-0.001,-0.004,-0.001,-0.001,-0.004,0.498,0.086,0.323,0.016,20.008,0.0,-0.017,0.603,0.0,0.0,0.0,-0.06,-0.0,0.0,0.151,-0.0,-0.0,-0.006,-0.0,-0.0,-0.001,0.009,0.0,0.0,31.989,30.779,0.094,603.055
3.217,-247.342,399.986,0.0,31.983,-0.336,0.0,0.0,0.0,0.0,1.0,-0.0,0.0,0.015,-83.506,3630.467,0.0,0.51,-0.0,-0.001,-0.001,-0.004,-0.001,-0.001,-0.004,0.498,0.108,0.331,0.016,20.244,0.0,-0.014,0.617,0.0,0.0,0.0,-0.061,-0.0,0.0,0.151,-0.0,-0.0,-0.008,-0.0,-0.0,-0.002,0.012,0.0,0.0,31.987,30.776,0.094,602.968
3.233,-246.811,399.98,0.0,31.982,-0.396,0.0,0.0,0.0,0.0,1.0,-0.0,0.0,0.017,-64.632,3711.914,0.0,0.636,-0.0,-0.001,-0.001,-0.004,-0.001,-0.001,-0.004,0.498,0.13,0.338,0.016,20.464,0.0,-0.011,0.631,0.0,0.0,0.0,-0.063,-0.0,0.0,0.151,-0.0,-0.0,-0.01,-0.0,-0.0,-0.002,0.015,0.0,0.0,31.985,30.775,0.094,602.904
3.25,-246.277,399.972,0.0,31.98,-0.454,0.0,0.0,0.0,0.0,1.0,-0.0,0.0,0.02,-45.65,3790.403,0.0,0.756,-0.0,-0.001,-0.001,-0.004,-0.001,-0.001,-0.004,0.498,0.151,0.345,0.017,20.667,0.0,-0.007,0.644,0.0,0.0,0.0,-0.064,-0.0,0.0,0.151,-0.0,-0.0,-0.012,-0.0,-0.0,-0.002,0.017,0.0,0.0,31.984,30.774,0.094,602.862
3.267,-245.746,399.964,0.0,31.98,-0.51,0.0,0.0,0.0,0.001,1.0,-0.0,0.0,0.022,-26.699,3866.886,0.0,0.871,-0.0,-0.001,-0.001,-0.004,-0.001,-0.001,-0.004,0.498,0.173,0.352,0.017,20.857,0.0,-0.004,0.657,0.0,0.0,0.0,-0.065,-0.0,0.0,0.151,-0.0,-0.0,-0.014,-0.0,-0.0,-0.003,0.02,0.0,0.0,31.983,30.773,0.094,602.843
3.283,-245.208,399.956,0.0,31.979,-0.564,0.0,0.0,0.0,0.001,1.0,-0.0,0.0,0.024,-7.69,3948.126,0.0,0.991,-0.0,-0.001,-0.001,-0.004,-0.001,-0.001,-0.004,0.498,0.195,0.36,0.017,21.05,0.0,-0.0,0.671,0.0,0.0,0.0,-0.067,-0.0,0.0,0.151,-0.0,-0.0,-0.016,-0.0,-0.0,-0.003,0.022,0.0,0.0,31.984,30.773,0.094,602.848
3.3,-244.678,399.946,0.0,31.98,-0.615,0.0,0.0,0.0,0.001,1.0,-0.0,0.0,0.026,11.187,4027.609,0.0,1.112,-0.0,-0.001,-0.001,-0.004,-0.001,-0.001,-0.004,0.498,0.216,0.367,0.017,21.231,0.0,0.003,0.684,0.0,0.0,0.0,-0.068,-0.0,0.0,0.151,-0.0,-0.0,-0.018,-0.0,-0.0,-0.004,0.024,0.0,0.0,31.984,30.774,0.094,602.876
3.317,-244.147,399.935,0.0,31.98,-0.664,0.0,0.0,0.0,0.001,1.0,-0.0,0.0,0.028,29.998,4103.912,0.0,1.226,-0.0,-0.001,-0.001,-0.004,-0.001,-0.001,-0.004,0.498,0.238,0.374,0.018,21.397,0.0,0.007,0.698,0.0,0.0,0.0,-0.069,-0.0,0.0,0.151,-0.0,-0.0,-0.019,-0.0,-0.0,-0.004,0.026,0.0,0.0,31.986,30.775,0.094,602.923
3.333,-243.612,399.924,0.0,31.982,-0.712,0.0,0.0,0.0,0.002,1.0,-0.0,0.0,0.03,48.828,4177.75,0.0,1.341,-0.0,-0.001,-0.001,-0.004,-0.001,-0.001,-0.004,0.498,0.26,0.38,0.018,21.551,0.0,0.01,0.71,0.0,0.0,0.0,-0.07,-0.0,0.0,0.151,-0.0,-0.0,-0.021,-0.0,-0.0,-0.004,0.028,0.0,0.0,31.987,30.777,0.094,602.991
3.35,-243.078,399.911,0.0,31.984,-0.758,0.0,0.0,0.0,0.002,1.0,-0.0,0.0,0.032,67.617,4249.745,0.0,1.45,-0.0,-0.001,-0.001,-0.004,-0.001,-0.001,-0.004,0.498,0.281,0.387,0.018,21.694,0.0,0.014,0.722,0.0,0.0,0.0,-0.072,-0.0,0.0,0.151,-0.0,-0.0,-0.023,-0.0,-0.0,-0.004,0.03,0.0,0.0,31.99,30.779,0.094,603.083
3.367,-242.544,399.898,0.0,31.986,-0.801,0.0,0.0,0.0,0.002,1.0,-0.0,0.0,0.033,86.291,4327.105,0.0,1.564,-0.0,-0.001,-0.001,-0.004,-0.001,-0.001,-0.004,0.498,0.303,0.394,0.018,21.841,0.0,0.017,0.735,0.0,0.0,0.0,-0.073,-0.0,0.0,0.151,-0.0,-0.0,-0.025,-0.0,-0.0,-0.005,0.032,0.0,0.0,31.993,30.782,0.094,603.195
3.383,-242.013,399.885,0.0,31.989,-0.842,0.0,0.0,0.0,0.002,1.0,-0.0,0.0,0.035,104.778,4402.015,0.0,1.673,-0.0,-0.001,-0.001,-0.004,-0.001,-0.001,-0.004,0.498,0.325,0.4,0.018,21.978,0.0,0.021,0.748,0.0,0.0,0.0,-0.074,-0.0,0.0,0.151,-0.0,-0.0,-0.026,-0.0,-0.0,-0.005,0.033,0.0,0.0,31.996,30.786,0.094,603.326
3.4,-241.479,399.87,0.0,31.992,-0.881,0.0,0.0,0.0,0.003,1.0,-0.0,0.0,0.036,123.215,4474.359,0.0,1.782,-0.0,-0.001,-0.001,-0.004,-0.001,-0.001,-0.004,0.498,0.346,0.407,0.018,22.103,0.0,0.025,0.76,0.0,0.0,0.0,-0.075,-0.0,0.0,0.151,-0.0,-0.0,-0.028,-0.0,-0.0,-0.005,0.035,0.0,0.0,32.0,30.79,0.094,603.476
3.417,-240.945,399.855,0.0,31.996,-0.918,0.0,0.0,0.0,0.003,1.0,-0.0,0.0,0.038,141.535,4544.734,0.0,1.885,-0.0,-0.001,-0.001,-0.004,-0.001,-0.001,-0.004,0.498,0.368,0.413,0.019,22.219,0.0,0.028,0.772,0.0,0.0,0.0,-0.076,-0.0,0.0,0.151,-0.0,-0.0,-0.03,-0.0,-0.0,-0.005,0.036,0.0,0.0,32.004,30.794,0.094,603.645
3.433,-240.414,399.84,0.0,32.001,-0.954,0.0,0.0,0.0,0.003,1.0,-0.0,0.0,0.039,159.647,4613.023,0.0,1.988,-0.0,-0.001,-0.001,-0.004,-0.001,-0.001,-0.004,0.498,0.39,0.419,0.019,22.327,0.0,0.032,0.784,0.0,0.0,0.0,-0.078,-0.0,0.0,0.151,-0.0,-0.0,-0.031,-0.0,-0.0,-0.006,0.038,0.0,0.0,32.01,30.799,0.094,603.832
3.45,-239.879,399.824,0.0,32.006,-0.987,0.0,0.0,0.0,0.004,1.0,-0.0,0.0,0.04,177.678,4678.99,0.0,2.086,-0.0,-0.001,-0.001,-0.004,-0.001,-0.001,-0.004,0.498,0.411,0.425,0.019,22.427,0.0,0.035,0.795,0.0,0.0,0.0,-0.079,-0.0,0.0,0.151,-0.0,-0.0,-0.033,-0.0,-0.0,-0.006,0.039,0.0,0.0,32.015,30.804,0.094,604.038
3.467,-239.345,399.807,0.0,32.011,-1.019,0.0,0.0,0.0,0.004,1.0,-0.0,0.0,0.041,195.556,4743.113,0.0,2.177,-0.0,-0.001,-0.001,-0.004,-0.001,-0.001,-0.004,0.498,0.433,0.431,0.019,22.519,0.0,0.039,0.806,0.0,0.0,0.0,-0.08,-0.0,0.0,0.151,-0.0,-0.0,-0.034,-0.0,-0.0,-0.006,0.04,0.0,0.0,32.021,30.81,0.094,604.262
3.483,-238.813,399.79,0.0,32.017,-1.049,0.0,0.0,0.0,0.004,1.0,-0.0,0.0,0.042,213.206,4805.393,0.0,2.269,-0.0,-0.001,-0.001,-0.004,-0.001,-0.001,-0.004,0.498,0.455,0.436,0.019,22.605,0.0,0.043,0.816,0.0,0.0,0.0,-0.081,-0.0,0.0,0.151,-0.0,-0.0,-0.036,-0.0,-0.0,-0.006,0.041,0.0,0.0,32.027,30.816,0.094,604.504
3.5,-238.282,399.772,0.0,32.023,-1.077,0.0,0.0,0.0,0.004,1.0,-0.0,0.0,0.043,230.664,4865.475,0.0,2.355,-0.0,-0.001,-0.001,-0.004,-0.001,-0.001,-0.004,0.498,0.476,0.441,0.02,22.684,0.0,0.046,0.826,0.0,0.0,0.0,-0.082,-0.0,0.0,0.151,-0.0,-0.0,-0.037,-0.0,-0.0,-0.006,0.042,0.0,0.0,32.034,30.822,0.095,604.764
3.517,-237.744,399.754,0.0,32.03,-1.104,0.0,0.0,0.0,0.005,1.0,-0.0,0.0,0.043,248.116,4923.838,0.0,2.441,-0.0,-0.001,-0.001,-0.004,-0.001,-0.001,-0.004,0.498,0.498,0.446,0.02,22.757,0.0,0.05,0.836,0.0,0.0,0.0,-0.083,-0.0,0.0,0.151,-0.0,-0.0,-0.038,-0.0,-0.0,-0.006,0.043,0.0,0.0,32.041,30.83,0.095,605.042
3.533,-237.212,399.735,0.0,32.037,-1.128,0.0,0.0,0.0,0.005,1.0,-0.0,0.0,0.044,252.344,4988.353,0.0,2.532,-0.0,-0.001,-0.001,-0.004,-0.001,-0.001,-0.004,0.498,0.498,0.452,0.02,22.835,0.0,0.051,0.847,0.0,0.0,0.0,-0.084,-0.0,0.0,0.151,-0.0,-0.0,-0.04,-0.0,-0.0,-0.006,0.043,0.0,0.0,32.049,30.837,0.095,605.338
3.55,-236.677,399.716,0.0,32.044,-1.152,0.0,0.0,0.0,0.006,1.0,-0.0,0.0,0.045,256.318,5050.436,0.0,2.624,-0.0,-0.001,-0.001,-0.004,-0.001,-0.001,-0.004,0.498,0.498,0.458,0.02,22.906,0.0,0.053,0.858,0.0,0.0,0.0,-0.085,-0.0,0.0,0.151,-0.0,-0.0,-0.041,-0.0,-0.0,-0.006,0.044,0.0,0.0,32.057,30.845,0.095,605.636
3.567,-236.142,399.697,0.0,32.051,-1.173,0.0,0.0,0.0,0.006,1.0,-0.0,0.0,0.045,260.105,5110.684,0.0,2.71,-0.0,-0.001,-0.001,-0.004,-0.001,-0.001,-0.004,0.498,0.498,0.463,0.02,22.973,0.0,0.054,0.868,0.0,0.0,0.0,-0.086,-0.0,0.0,0.151,-0.0,-0.0,-0.043,-0.0,-0.0,-0.007,0.045,0.0,0.0,32.065,30.852,0.095,605.937
3.583,-235.61,399.677,0.0,32.059,-1.193,0.0,0.0,0.0,0.006,1.0,-0.0,0.0,0.046,263.677,5168.975,0.0,2.796,-0.0,-0.001,-0.001,-0.004,-0.001,-0.001,-0.004,0.498,0.498,0.468,0.02,23.034,0.0,0.056,0.878,0.0,0.0,0.0,-0.087,-0.0,0.0,0.151,-0.0,-0.0,-0.044,-0.0,-0.0,-0.007,0.045,0.0,0.0,32.073,30.86,0.095,606.239
3.6,-235.074,399.657,0.0,32.066,-1.211,0.0,0.0,0.0,0.007,1.0,-0.0,0.0,0.046,267.022,5225.308,0.0,2.876,-0.0,-0.001,-0.001,-0.004,-0.001,-0.001,-0.004,0.498,0.498,0.473,0.02,23.09,0.0,0.057,0.887,0.0,0.0,0.0,-0.088,-0.0,0.0,0.151,-0.0,-0.0,-0.045,-0.0,-0.0,-0.007,0.046,0.0,0.0,32.081,30.868,0.095,606.544
3.617,-234.542,399.637,0.0,32.074,-1.228,0.0,0.0,0.0,0.007,1.0,-0.0,0.0,0.046,270.165,5279.919,0.0,2.956,-0.0,-0.001,-0.001,-0.004,-0.001,-0.001,-0.004,0.498,0.498,0.477,0.021,23.142,0.0,0.058,0.897,0.0,0.0,0.0,-0.088,-0.0,0.0,0.151,-0.0,-0.0,-0.046,-0.0,-0.0,-0.007,0.046,0.0,0.0,32.089,30.876,0.095,606.85
3.633,-234.006,399.616,0.0,32.081,-1.243,0.0,0.0,0.0,0.008,1.0,-0.0,0.0,0.047,273.078,5332.688,0.0,3.031,-0.0,-0.001,-0.001,-0.004,-0.001,-0.001,-0.004,0.498,0.498,0.482,0.021,23.191,0.0,0.06,0.906,0.0,0.0,0.0,-0.089,-0.0,0.0,0.151,-0.0,-0.0,-0.048,-0.0,-0.0,-0.007,0.046,0.0,0.0,32.097,30.884,0.095,607.159
3.65,-233.47,399.596,0.0,32.089,-1.257,0.0,0.0,0.0,0.008,1.0,-0.0,0.0,0.047,275.787,5383.853,0.0,3.1,-0.0,-0.001,-0.001,-0.004,-0.001,-0.001,-0.004,0.498,0.498,0.486,0.021,23.235,0.0,0.061,0.914,0.0,0.0,0.0,-0.09,-0.0,0.0,0.151,-0.0,-0.0,-0.049,-0.0,-0.0,-0.007,0.047,0.0,0.0,32.105,30.892,0.095,607.47
3.667,-232.938,399.574,0.0,32.097,-1.27,0.0,0.0,0.0,0.008,1.0,-0.0,0.0,0.047,278.285,5433.413,0.0,3.174,-0.0,-0.001,-0.001,-0.004,-0.001,-0.001,-0.004,0.498,0.498,0.49,0.021,23.277,0.0,0.062,0.922,0.0,0.0,0.0,-0.091,-0.0,0.0,0.151,-0.0,-0.0,-0.05,-0.0,-0.0,-0.007,0.047,0.0,0.0,32.114,30.9,0.095,607.783
3.683,-232.398,399.553,0.0,32.105,-1.281,0.0,0.0,0.0,0.009,1.0,-0.0,0.0,0.047,280.565,5481.336,0.0,3.237,-0.0,-0.001,-0.001,-0.004,-0.001,-0.001,-0.004,0.498,0.498,0.494,0.021,23.315,0.0,0.064,0.931,0.0,0.0,0.0,-0.092,-0.0,0.0,0.151,-0.0,-0.0,-0.051,-0.0,-0.0,-0.007,0.047,0.0,0.0,32.122,30.908,0.095,608.094
3.7,-231.865,399.532,0.0,32.112,-1.291,0.0,0.0,0.0,0.009,1.0,-0.0,0.0,0.047,282.655,5527.921,0.0,3.306,-0.0,-0.001,-0.001,-0.004,-0.001,-0.001,-0.004,0.498,0.498,0.498,0.021,23.351,0.0,0.065,0.938,0.0,0.0,0.0,-0.092,-0.0,0.0,0.151,-0.0,-0.0,-0.052,-0.0,-0.0,-0.007,0.047,0.0,0.0,32.13,30.916,0.095,608.411
3.717,-231.329,399.51,0.0,32.12,-1.3,0.0,0.0,0.0,0.01,1.0,-0.0,0.0,0.047,284.516,5572.837,0.0,3.369,-0.0,-0.001,-0.001,-0.004,-0.001,-0.001,-0.004,0.498,0.498,0.502,0.022,23.384,0.0,0.066,0.946,0.0,0.0,0.0,-0.093,-0.0,0.0,0.151,-0.0,-0.0,-0.053,-0.0,-0.0,-0.007,0.047,0.0,0.0,32.138,30.924,0.095,608.723
3.733,-230.792,399.488,0.0,32.128,-1.307,0.0,0.0,0.0,0.01,1.0,-0.0,0.0,0.047,286.175,5616.382,0.0,3.426,-0.0,-0.001,-0.001,-0.004,-0.001,-0.001,-0.004,0.498,0.498,0.506,0.022,23.414,0.0,0.067,0.953,0.0,0.0,0.0,-0.094,-0.0,0.0,0.151,-0.0,-0.0,-0.054,-0.0,-0.0,-0.007,0.047,0.0,0.0,32.147,30.932,0.095,609.036
3.75,-230.259,399.467,0.0,32.136,-1.313,0.0,0.0,0.0,0.01,1.0,-0.0,0.0,0.046,287.611,5658.434,0.0,3.489,-0.0,-0.001,-0.001,-0.004,-0.001,-0.001,-0.004,0.498,0.498,0.509,0.022,23.443,0.0,0.068,0.96,0.0,0.0,0.0,-0.094,-0.0,0.0,0.151,-0.0,-0.0,-0.055,-0.0,-0.0,-0.007,0.047,0.0,0.0,32.155,30.94,0.095,609.352
3.767,-229.726,399.445,0.0,32.144,-1.318,0.0,0.0,0.0,0.011,1.0,-0.0,0.0,0.046,288.836,5699.084,0.0,3.541,-0.0,-0.001,-0.001,-0.004,-0.001,-0.001,-0.004,0.498,0.498,0.513,0.022,23.469,0.0,0.069,0.967,0.0,0.0,0.0,-0.095,-0.0,0.0,0.151,-0.0,-0.0,-0.056,-0.0,-0.0,-0.007,0.046,0.0,0.0,32.163,30.948,0.095,609.666
3.783,-229.185,399.423,0.0,32.152,-1.322,0.0,0.0,0.0,0.011,1.0,-0.0,0.0,0.046,289.866,5738.448,0.0,3.598,-0.0,-0.001,-0.001,-0.004,-0.001,-0.001,-0.004,0.498,0.498,0.516,0.022,23.494,0.0,0.07,0.974,0.0,0.0,0.0,-0.096,-0.0,0.0,0.151,-0.0,-0.0,-0.056,-0.0,-0.0,-0.007,0.046,0.0,0.0,32.171,30.956,0.095,609.978
3.8,-228.652,399.401,0.0,32.16,-1.325,0.0,0.0,0.0,0.012,1.0,-0.0,0.0,0.046,290.714,5776.677,0.0,3.65,-0.0,-0.001,-0.001,-0.004,-0.001,-0.001,-0.004,0.498,0.498,0.519,0.022,23.516,0.0,0.072,0.98,0.0,0.0,0.0,-0.096,-0.0,0.0,0.151,-0.0,-0.0,-0.057,-0.0,-0.0,-0.007,0.046,0.0,0.0,32.18,30.964,0.095,610.293
3.817,-228.114,399.378,0.0,32.168,-1.327,0.0,0.0,0.0,0.012,1.0,-0.0,0.0,0.045,291.359,5813.588,0.0,3.701,-0.0,-0.001,-0.001,-0.004,-0.001,-0.001,-0.004,0.498,0.498,0.522,0.022,23.537,0.0,0.073,0.987,0.0,0.0,0.0,-0.097,-0.0,0.0,0.151,-0.0,-0.0,-0.058,-0.0,-0.0,-0.007,0.046,0.0,0.0,32.188,30.972,0.095,610.602
3.833,-227.58,399.356,0.0,32.177,-1.328,0.0,0.0,0.0,0.012,1.0,-0.0,0.0,0.045,291.817,5849.361,0.0,3.747,-0.0,-0.001,-0.001,-0.004,-0.001,-0.001,-0.004,0.498,0.498,0.525,0.022,23.557,0.0,0.074,0.993,0.0,0.0,0.0,-0.097,-0.0,0.0,0.151,-0.0,-0.0,-0.059,-0.0,-0.0,-0.007,0.045,0.0,0.0,32.196,30.979,0.095,610.913
3.85,-227.043,399.334,0.0,32.185,-1.328,0.0,0.0,0.0,0.013,1.0,-0.0,0.0,0.044,292.084,5883.964,0.0,3.799,-0.0,-0.001,-0.001,-0.004,-0.001,-0.001,-0.004,0.498,0.498,0.528,0.022,23.575,0.0,0.075,0.998,0.0,0.0,0.0,-0.098,-0.0,0.0,0.151,-0.0,-0.0,-0.06,-0.0,-0.0,-0.007,0.045,0.0,0.0,32.204,30.987,0.095,611.223
3.867,-226.505,399.312,0.0,32.193,-1.328,0.0,0.0,0.0,0.013,1.0,-0.0,0.0,0.044,292.159,5917.397,0.0,3.839,-0.0,-0.001,-0.001,-0.004,-0.001,-0.001,-0.004,0.498,0.498,0.53,0.022,23.592,0.0,0.076,1.004,0.0,0.0,0.0,-0.098,-0.0,0.0,0.151,-0.0,-0.0,-0.06,-0.0,-0.0,-0.006,0.044,0.0,0.0,32.212,30.995,0.095,611.532
3.883,-225.971,399.29,0.0,32.201,-1.326,0.0,0.0,0.0,0.014,1.0,-0.0,0.0,0.043,292.058,5949.778,0.0,3.885,-0.0,-0.001,-0.001,-0.004,-0.001,-0.001,-0.004,0.498,0.498,0.533,0.023,23.608,0.0,0.076,1.01,0.0,0.0,0.0,-0.099,-0.0,0.0,0.151,-0.0,-0.0,-0.061,-0.0,-0.0,-0.006,0.044,0.0,0.0,32.22,31.003,0.095,611.839
3.9,-225.433,399.268,0.0,32.209,-1.323,0.0,0.0,0.0,0.014,1.0,-0.0,0.0,0.043,291.778,5981.107,0.0,3.925,-0.0,-0.001,-0.001,-0.004,-0.001,-0.001,-0.004,0.498,0.498,0.536,0.023,23.623,0.0,0.077,1.015,0.0,0.0,0.0,-0.099,-0.0,0.0,0.151,-0.0,-0.0,-0.062,-0.0,-0.0,-0.006,0.043,0.0,0.0,32.228,31.011,0.095,612.145
3.917,-224.886,399.246,0.0,32.217,-1.319,0.0,0.0,0.0,0.014,1.0,-0.0,0.0,0.042,291.319,6011.382,0.0,3.971,-0.0,-0.001,-0.001,-0.004,-0.001,-0.001,-0.004,0.498,0.498,0.538,0.023,23.636,0.0,0.078,1.02,0.0,0.0,0.0,-0.1,-0.0,0.0,0.151,-0.0,-0.0,-0.062,-0.0,-0.0,-0.006,0.043,0.0,0.0,32.236,31.018,0.095,612.45
3.987,-223.18,399.176,0.0,32.243,-1.308,0.0,0.0,0.0,0.016,1.0,-0.0,0.0,0.04,291.319,6011.382,0.0,3.971,-0.0,-0.001,-0.001,-0.004,-0.001,-0.001,-0.004,0.498,0.498,0.538,0.023,23.636,0.0,0.078,1.02,0.0,0.0,0.0,-0.1,-0.0,0.0,0.151,-0.0,-0.0,-0.062,-0.0,-0.0,-0.006,0.043,0.0,0.0,32.236,31.018,0.095,612.45
4.0,-222.758,399.159,0.0,32.249,-1.303,0.0,-0.0,0.0,0.016,1.0,-0.0,0.0,0.04,288.582,6120.708,0.0,4.108,-0.0,-0.001,-0.001,-0.004,-0.001,-0.001,-0.004,0.498,0.498,0.547,0.023,23.681,0.0,0.082,1.038,0.0,0.0,0.0,-0.101,-0.0,0.0,0.151,-0.0,-0.0,-0.065,0.0,-0.0,-0.006,0.04,-0.0,0.0,32.269,31.051,0.095,613.72
4.017,-222.22,399.137,0.0,32.257,-1.296,0.0,-0.0,0.0,0.016,1.0,-0.0,0.0,0.039,287.588,6139.766,0.0,4.137,-0.0,-0.001,-0.001,-0.004,-0.001,-0.001,-0.004,0.498,0.498,0.548,0.023,23.688,0.0,0.082,1.041,0.0,0.0,0.0,-0.102,-0.0,0.0,0.151,-0.0,-0.0,-0.065,0.0,-0.0,-0.006,0.04,-0.0,0.0,32.276,31.057,0.095,613.952
4.033,-221.684,399.116,0.0,32.265,-1.288,0.0,-0.0,0.0,0.016,1.0,-0.0,0.0,0.038,286.204,6157.117,0.0,4.154,-0.0,-0.001,-0.001,-0.004,-0.001,-0.001,-0.004,0.498,0.498,0.549,0.023,23.694,0.0,0.082,1.044,0.0,0.0,0.0,-0.102,-0.0,0.0,0.151,-0.0,-0.0,-0.065,0.0,-0.0,-0.006,0.039,-0.0,0.0,32.283,31.064,0.095,614.247
4.05,-221.145,399.094,0.0,32.273,-1.28,0.0,-0.0,0.0,0.017,1.0,-0.0,0.0,0.037,284.716,6173.85,0.0,4.177,-0.0,-0.001,-0.001,-0.004,-0.001,-0.001,-0.004,0.498,0.498,0.551,0.023,23.7,0.0,0.083,1.047,0.0,0.0,0.0,-0.102,-0.0,0.0,0.151,-0.0,-0.0,-0.066,0.0,-0.0,-0.006,0.038,-0.0,0.0,32.291,31.072,0.095,614.537
4.067,-220.606,399.073,0.0,32.281,-1.272,0.0,-0.0,0.0,0.017,1.0,-0.0,0.0,0.037,283.123,6189.998,0.0,4.194,-0.0,-0.001,-0.001,-0.004,-0.001,-0.001,-0.004,0.498,0.498,0.552,0.023,23.705,0.0,0.083,1.05,0.0,0.0,0.0,-0.102,-0.0,0.0,0.151,-0.0,-0.0,-0.066,0.0,-0.0,-0.006,0.037,-0.0,0.0,32.298,31.079,0.095,614.827
4.083,-220.067,399.052,0.0,32.289,-1.263,0.0,-0.0,0.0,0.017,1.0,-0.0,0.0,0.036,281.444,6205.681,0.0,4.217,-0.0,-0.001,-0.001,-0.004,-0.001,-0.001,-0.004,0.498,0.498,0.553,0.023,23.71,0.0,0.084,1.052,0.0,0.0,0.0,-0.102,-0.0,0.0,0.151,-0.0,-0.0,-0.066,0.0,-0.0,-0.005,0.037,-0.0,0.0,32.306,31.086,0.095,615.116
4.1,-219.531,399.031,0.0,32.296,-1.253,0.0,-0.0,0.0,0.018,1.0,-0.0,0.0,0.035,279.661,6220.744,0.0,4.234,-0.0,-0.001,-0.001,-0.004,-0.001,-0.001,-0.004,0.498,0.498,0.554,0.023,23.715,0.0,0.084,1.055,0.0,0.0,0.0,-0.103,-0.0,0.0,0.151,-0.0,-0.0,-0.066,0.0,-0.0,-0.005,0.036,-0.0,0.0,32.313,31.094,0.095,615.4
4.117,-218.991,399.01,0.0,32.304,-1.244,0.0,-0.0,0.0,0.018,1.0,-0.0,0.0,0.034,277.812,6235.428,0.0,4.251,-0.0,-0.001,-0.001,-0.004,-0.001,-0.001,-0.004,0.498,0.498,0.555,0.023,23.719,0.0,0.085,1.057,0.0,0.0,0.0,-0.103,-0.0,0.0,0.151,-0.0,-0.0,-0.067,0.0,-0.0,-0.005,0.035,-0.0,0.0,32.321,31.101,0.095,615.681
4.133,-218.452,398.989,0.0,32.312,-1.233,0.0,-0.0,0.0,0.018,1.0,-0.0,0.0,0.033,275.858,6249.525,0.0,4.269,-0.0,-0.001,-0.001,-0.004,-0.001,-0.001,-0.004,0.498,0.498,0.556,0.023,23.723,0.0,0.085,1.06,0.0,0.0,0.0,-0.103,-0.0,0.0,0.151,-0.0,-0.0,-0.067,0.0,-0.0,-0.005,0.034,-0.0,0.0,32.328,31.108,0.095,615.961
4.15,-217.916,398.969,0.0,32.319,-1.223,0.0,-0.0,0.0,0.019,1.0,-0.0,0.0,0.033,273.818,6263.156,0.0,4.28,-0.0,-0.001,-0.001,-0.004,-0.001,-0.001,-0.004,0.498,0.498,0.557,0.024,23.727,0.0,0.086,1.062,0.0,0.0,0.0,-0.103,-0.0,0.0,0.151,-0.0,-0.0,-0.067,0.0,-0.0,-0.005,0.033,-0.0,0.0,32.335,31.115,0.096,616.24
4.167,-217.376,398.949,0.0,32.327,-1.212,0.0,-0.0,0.0,0.019,1.0,-0.0,0.0,0.032,271.712,6276.406,0.0,4.297,-0.0,-0.001,-0.001,-0.004,-0.001,-0.001,-0.004,0.498,0.498,0.558,0.024,23.731,0.0,0.086,1.064,0.0,0.0,0.0,-0.103,-0.0,0.0,0.151,-0.0,-0.0,-0.068,0.0,-0.0,-0.005,0.033,-0.0,0.0,32.342,31.122,0.096,616.516
4.183,-216.836,398.929,0.0,32.334,-1.201,0.0,-0.0,0.0,0.019,1.0,-0.0,0.0,0.031,269.521,6289.188,0.0,4.314,-0.0,-0.001,-0.001,-0.004,-0.001,-0.001,-0.004,0.498,0.498,0.559,0.024,23.734,0.0,0.086,1.066,0.0,0.0,0.0,-0.104,-0.0,0.0,0.151,-0.0,-0.0,-0.068,0.0,-0.0,-0.005,0.032,-0.0,0.0,32.35,31.129,0.096,616.791
4.2,-216.299,398.909,0.0,32.342,-1.189,0.0,-0.0,0.0,0.02,1.0,-0.0,0.0,0.03,267.245,6301.469,0.0,4.326,-0.0,-0.001,-0.001,-0.004,-0.001,-0.001,-0.004,0.498,0.498,0.56,0.024,23.738,0.0,0.086,1.068,0.0,0.0,0.0,-0.104,-0.0,0.0,0.151,-0.0,-0.0,-0.068,0.0,-0.0,-0.004,0.031,-0.0,0.0,32.357,31.136,0.096,617.062
4.217,-215.762,398.889,0.0,32.349,-1.177,0.0,-0.0,0.0,0.02,1.0,-0.0,0.0,0.029,264.904,6313.367,0.0,4.337,-0.0,-0.001,-0.001,-0.004,-0.001,-0.001,-0.004,0.498,0.498,0.56,0.024,23.741,0.0,0.087,1.07,0.0,0.0,0.0,-0.104,-0.0,0.0,0.151,-0.0,-0.0,-0.068,0.0,-0.0,-0.004,0.03,-0.0,0.0,32.364,31.142,0.096,617.329
4.234,-215.212,398.869,0.0,32.357,-1.165,0.0,-0.0,0.0,0.02,1.0,-0.0,0.0,0.028,262.515,6317.093,0.0,4.343,-0.0,-0.001,-0.001,-0.004,-0.001,-0.001,-0.004,0.498,0.498,0.56,0.024,23.741,0.0,0.087,1.071,0.0,0.0,0.0,-0.104,-0.0,0.0,0.151,-0.0,-0.0,-0.068,0.0,-0.0,-0.004,0.029,-0.0,0.0,32.371,31.149,0.096,617.592
4.25,-214.685,398.85,0.0,32.364,-1.153,0.0,-0.0,0.0,0.02,1.0,-0.0,0.0,0.027,260.046,6320.378,0.0,4.343,-0.0,-0.001,-0.001,-0.004,-0.001,-0.001,-0.004,0.498,0.498,0.56,0.024,23.741,0.0,0.087,1.072,0.0,0.0,0.0,-0.104,-0.0,0.0,0.151,-0.0,-0.0,-0.068,0.0,-0.0,-0.004,0.028,-0.0,0.0,32.378,31.156,0.096,617.858
4.267,-214.141,398.831,0.0,32.371,-1.141,0.0,-0.0,0.0,0.02,1.0,-0.0,0.0,0.026,257.656,6324.05,0.0,4.343,-0.0,-0.001,-0.001,-0.004,-0.001,-0.001,-0.004,0.498,0.498,0.561,0.024,23.742,0.0,0.087,1.072,0.0,0.0,0.0,-0.104,-0.0,0.0,0.151,-0.0,-0.0,-0.068,0.0,-0.0,-0.004,0.027,-0.0,0.0,32.384,31.162,0.096,618.114
4.283,-213.6,398.812,0.0,32.378,-1.128,0.0,-0.0,0.0,0.02,1.0,-0.0,0.0,0.025,255.186,6327.282,0.0,4.343,-0.0,-0.001,-0.001,-0.004,-0.001,-0.001,-0.004,0.498,0.498,0.561,0.024,23.742,0.0,0.087,1.073,0.0,0.0,0.0,-0.104,-0.0,0.0,0.151,-0.0,-0.0,-0.068,0.0,-0.0,-0.004,0.026,-0.0,0.0,32.391,31.169,0.096,618.373
4.3,-213.063,398.794,0.0,32.385,-1.116,0.0,-0.0,0.0,0.021,1.0,-0.0,0.0,0.024,252.716,6330.486,0.0,4.343,-0.0,-0.001,-0.001,-0.004,-0.001,-0.001,-0.004,0.498,0.498,0.561,0.024,23.742,0.0,0.087,1.073,0.0,0.0,0.0,-0.104,-0.0,0.0,0.151,-0.0,-0.0,-0.068,0.0,-0.0,-0.004,0.025,-0.0,0.0,32.398,31.175,0.096,618.629
4.317,-212.525,398.775,0.0,32.392,-1.104,0.0,-0.0,0.0,0.021,1.0,-0.0,0.0,0.024,250.226,6333.542,0.0,4.343,-0.0,-0.001,-0.001,-0.004,-0.001,-0.001,-0.004,0.498,0.498,0.561,0.024,23.742,0.0,0.087,1.074,0.0,0.0,0.0,-0.104,-0.0,0.0,0.151,-0.0,-0.0,-0.068,0.0,-0.0,-0.004,0.024,-0.0,0.0,32.404,31.182,0.096,618.881
4.333,-211.981,398.757,0.0,32.399,-1.091,0.0,-0.0,0.0,0.021,1.0,-0.0,0.0,0.023,247.736,6336.572,0.0,4.349,-0.0,-0.001,-0.001,-0.004,-0.001,-0.001,-0.004,0.498,0.498,0.561,0.024,23.742,0.0,0.087,1.074,0.0,0.0,0.0,-0.104,-0.0,0.0,0.151,-0.0,-0.0,-0.068,0.0,-0.0,-0.003,0.024,-0.0,0.0,32.411,31.188,0.096,619.129
4.35,-211.443,398.739,0.0,32.406,-1.078,0.0,-0.0,0.0,0.021,1.0,-0.0,0.0,0.022,245.187,6339.245,0.0,4.349,-0.0,-0.001,-0.001,-0.004,-0.001,-0.001,-0.004,0.498,0.498,0.561,0.024,23.742,0.0,0.087,1.075,0.0,0.0,0.0,-0.104,-0.0,0.0,0.151,-0.0,-0.0,-0.068,0.0,-0.0,-0.003,0.023,-0.0,0.0,32.417,31.194,0.096,619.377
4.367,-210.902,398.721,0.0,32.412,-1.066,0.0,-0.0,0.0,0.022,1.0,-0.0,0.0,0.021,242.657,6342.012,0.0,4.349,-0.0,-0.001,-0.001,-0.004,-0.001,-0.001,-0.004,0.498,0.498,0.561,0.024,23.742,0.0,0.087,1.075,0.0,0.0,0.0,-0.104,-0.0,0.0,0.151,-0.0,-0.0,-0.068,0.0,-0.0,-0.003,0.022,-0.0,0.0,32.423,31.2,0.096,619.622
4.383,-210.364,398.703,0.0,32.419,-1.053,0.0,-0.0,0.0,0.022,1.0,-0.0,0.0,0.02,240.107,6344.666,0.0,4.349,-0.0,-0.001,-0.001,-0.004,-0.001,-0.001,-0.004,0.498,0.498,0.561,0.024,23.742,0.0,0.087,1.076,0.0,0.0,0.0,-0.104,-0.0,0.0,0.151,-0.0,-0.0,-0.068,0.0,-0.0,-0.003,0.021,-0.0,0.0,32.43,31.207,0.096,619.867
4.4,-209.822,398.686,0.0,32.426,-1.04,0.0,-0.0,0.0,0.022,1.0,-0.0,0.0,0.019,237.558,6347.256,0.0,4.349,-0.0,-0.001,-0.001,-0.004,-0.001,-0.001,-0.004,0.498,0.498,0.561,0.024,23.742,0.0,0.087,1.076,0.0,0.0,0.0,-0.104,-0.0,0.0,0.151,-0.0,-0.0,-0.068,0.0,-0.0,-0.003,0.02,-0.0,0.0,32.436,31.213,0.096,620.104
4.417,-209.28,398.668,0.0,32.432,-1.027,0.0,-0.0,0.0,0.022,1.0,-0.0,0.0,0.018,234.97,6349.611,0.0,4.349,-0.0,-0.001,-0.001,-0.004,-0.001,-0.001,-0.004,0.498,0.498,0.561,0.024,23.742,0.0,0.087,1.076,0.0,0.0,0.0,-0.104,-0.0,0.0,0.151,-0.0,-0.0,-0.068,0.0,-0.0,-0.003,0.019,-0.0,0.0,32.442,31.219,0.096,620.342
4.433,-208.742,398.652,0.0,32.438,-1.014,0.0,-0.0,0.0,0.022,1.0,-0.0,0.0,0.018,232.364,6351.818,0.0,4.343,-0.0,-0.001,-0.001,-0.004,-0.001,-0.001,-0.004,0.498,0.498,0.561,0.024,23.742,0.0,0.087,1.077,0.0,0.0,0.0,-0.104,-0.0,0.0,0.151,-0.0,-0.0,-0.068,0.0,-0.0,-0.003,0.018,-0.0,0.0,32.448,31.224,0.096,620.575
4.45,-208.2,398.635,0.0,32.445,-1.001,0.0,-0.0,0.0,0.022,1.0,-0.0,0.0,0.017,229.776,6354.116,0.0,4.343,-0.0,-0.001,-0.001,-0.004,-0.001,-0.001,-0.004,0.498,0.498,0.561,0.024,23.742,0.0,0.087,1.077,0.0,0.0,0.0,-0.104,-0.0,0.0,0.151,-0.0,-0.0,-0.068,0.0,-0.0,-0.003,0.018,-0.0,0.0,32.454,31.23,0.096,620.806
4.467,-207.652,398.618,0.0,32.451,-0.988,0.0,-0.0,0.0,0.022,1.0,-0.0,0.0,0.016,227.211,6348.347,0.0,4.332,-0.0,-0.001,-0.001,-0.004,-0.001,-0.001,-0.004,0.498,0.498,0.56,0.024,23.74,0.0,0.087,1.076,0.0,0.0,0.0,-0.104,-0.0,0.0,0.151,-0.0,-0.0,-0.068,0.0,-0.0,-0.002,0.017,-0.0,0.0,32.46,31.236,0.096,621.036
4.483,-207.116,398.602,0.0,32.458,-0.975,0.0,-0.0,0.0,0.023,1.0,-0.0,0.0,0.015,224.651,6342.58,0.0,4.32,-0.0,-0.001,-0.001,-0.004,-0.001,-0.001,-0.004,0.498,0.498,0.559,0.024,23.737,0.0,0.087,1.075,0.0,0.0,0.0,-0.104,-0.0,0.0,0.151,-0.0,-0.0,-0.068,0.0,-0.0,-0.002,0.016,-0.0,0.0,32.466,31.242,0.096,621.266
4.5,-206.578,398.586,0.0,32.464,-0.963,0.0,-0.0,0.0,0.023,1.0,-0.0,0.0,0.014,222.19,6337.348,0.0,4.309,-0.0,-0.001,-0.001,-0.004,-0.001,-0.001,-0.004,0.498,0.498,0.559,0.024,23.734,0.0,0.086,1.074,0.0,0.0,0.0,-0.103,-0.0,0.0,0.151,-0.0,-0.0,-0.068,0.0,-0.0,-0.002,0.015,-0.0,0.0,32.472,31.248,0.096,621.49
4.517,-206.035,398.57,0.0,32.47,-0.95,0.0,-0.0,0.0,0.023,1.0,-0.0,0.0,0.014,219.754,6332.204,0.0,4.297,-0.0,-0.001,-0.001,-0.004,-0.001,-0.001,-0.004,0.498,0.498,0.558,0.024,23.731,0.0,0.086,1.073,0.0,0.0,0.0,-0.103,-0.0,0.0,0.151,-0.0,-0.0,-0.068,0.0,-0.0,-0.002,0.014,-0.0,0.0,32.478,31.253,0.096,621.71
4.533,-205.496,398.554,0.0,32.476,-0.938,0.0,-0.0,0.0,0.023,1.0,-0.0,0.0,0.013,217.323,6327.061,0.0,4.291,-0.0,-0.001,-0.001,-0.004,-0.001,-0.001,-0.004,0.498,0.498,0.557,0.024,23.729,0.0,0.086,1.072,0.0,0.0,0.0,-0.103,-0.0,0.0,0.151,-0.0,-0.0,-0.067,0.0,-0.0,-0.002,0.014,-0.0,0.0,32.484,31.259,0.096,621.93
4.55,-204.954,398.538,0.0,32.482,-0.926,0.0,-0.0,0.0,0.023,1.0,-0.0,0.0,0.012,214.933,6322.127,0.0,4.28,-0.0,-0.001,-0.001,-0.004,-0.001,-0.001,-0.004,0.498,0.498,0.557,0.024,23.726,0.0,0.086,1.072,0.0,0.0,0.0,-0.103,-0.0,0.0,0.151,-0.0,-0.0,-0.067,0.0,-0.0,-0.002,0.013,-0.0,0.0,32.489,31.264,0.096,622.147
4.567,-204.412,398.523,0.0,32.488,-0.914,0.0,-0.0,0.0,0.023,1.0,-0.0,0.0,0.012,212.566,6317.315,0.0,4.269,-0.0,-0.001,-0.001,-0.004,-0.001,-0.001,-0.004,0.498,0.498,0.556,0.023,23.724,0.0,0.085,1.071,0.0,0.0,0.0,-0.103,-0.0,0.0,0.151,-0.0,-0.0,-0.067,0.0,-0.0,-0.002,0.012,-0.0,0.0,32.495,31.27,0.096,622.364
4.635,-202.725,398.477,0.0,32.506,-0.876,0.0,-0.0,0.0,0.023,1.0,-0.0,0.0,0.009,212.566,6317.315,0.0,4.269,-0.0,-0.001,-0.001,-0.004,-0.001,-0.001,-0.004,0.498,0.498,0.556,0.023,23.724,0.0,0.085,1.071,0.0,0.0,0.0,-0.103,-0.0,0.0,0.151,-0.0,-0.0,-0.067,0.0,-0.0,-0.002,0.012,-0.0,0.0,32.495,31.27,0.096,622.364
4.651,-202.211,398.463,0.0,32.511,-0.865,0.0,-0.0,0.0,0.024,1.0,-0.0,0.0,0.009,203.012,6297.34,0.0,4.223,-0.0,-0.001,-0.001,-0.004,-0.001,-0.001,-0.004,0.498,0.498,0.554,0.023,23.713,0.0,0.084,1.068,0.0,0.0,0.0,-0.102,-0.0,0.0,0.151,-0.0,-0.0,-0.066,0.0,-0.0,-0.001,0.009,-0.0,0.0,32.518,31.292,0.096,623.246
4.667,-201.704,398.449,0.0,32.516,-0.855,0.0,-0.0,0.0,0.024,1.0,-0.0,0.0,0.008,200.908,6293.864,0.0,4.217,-0.0,-0.001,-0.001,-0.004,-0.001,-0.001,-0.004,0.498,0.498,0.553,0.023,23.71,0.0,0.084,1.067,0.0,0.0,0.0,-0.102,-0.0,0.0,0.151,-0.0,-0.0,-0.066,0.0,-0.0,-0.001,0.009,-0.0,0.0,32.523,31.297,0.096,623.439
4.683,-201.158,398.435,0.0,32.522,-0.843,0.0,-0.0,0.0,0.024,1.0,-0.0,0.0,0.007,198.843,6290.597,0.0,4.211,-0.0,-0.001,-0.001,-0.004,-0.001,-0.001,-0.004,0.498,0.498,0.553,0.023,23.708,0.0,0.084,1.066,0.0,0.0,0.0,-0.102,-0.0,0.0,0.151,-0.0,-0.0,-0.066,0.0,-0.0,-0.001,0.008,-0.0,0.0,32.528,31.302,0.096,623.628
4.7,-200.621,398.421,0.0,32.528,-0.832,0.0,-0.0,0.0,0.024,1.0,-0.0,0.0,0.007,196.652,6286.624,0.0,4.2,-0.0,-0.001,-0.001,-0.004,-0.001,-0.001,-0.004,0.498,0.498,0.552,0.023,23.706,0.0,0.084,1.066,0.0,0.0,0.0,-0.102,-0.0,0.0,0.151,-0.0,-0.0,-0.066,0.0,-0.0,-0.001,0.007,-0.0,0.0,32.533,31.307,0.096,623.832
4.717,-200.078,398.408,0.0,32.533,-0.821,0.0,-0.0,0.0,0.024,1.0,-0.0,0.0,0.006,194.519,6282.946,0.0,4.194,-0.0,-0.001,-0.001,-0.004,-0.001,-0.001,-0.004,0.498,0.498,0.552,0.023,23.704,0.0,0.084,1.065,0.0,0.0,0.0,-0.102,-0.0,0.0,0.151,-0.0,-0.0,-0.066,0.0,-0.0,-0.001,0.007,-0.0,0.0,32.538,31.312,0.096,624.029
4.733,-199.534,398.394,0.0,32.538,-0.81,0.0,-0.0,0.0,0.024,1.0,-0.0,0.0,0.006,192.39,6279.27,0.0,4.183,-0.0,-0.001,-0.001,-0.004,-0.001,-0.001,-0.004,0.498,0.498,0.551,0.023,23.702,0.0,0.084,1.064,0.0,0.0,0.0,-0.102,-0.0,0.0,0.151,-0.0,-0.0,-0.066,0.0,-0.0,-0.001,0.006,-0.0,0.0,32.543,31.317,0.096,624.226
4.75,-198.994,398.38,0.0,32.544,-0.799,0.0,-0.0,0.0,0.024,1.0,-0.0,0.0,0.005,190.281,6275.717,0.0,4.177,-0.0,-0.001,-0.001,-0.004,-0.001,-0.001,-0.004,0.498,0.498,0.551,0.023,23.699,0.0,0.084,1.064,0.0,0.0,0.0,-0.102,-0.0,0.0,0.151,-0.0,-0.0,-0.066,0.0,-0.0,-0.001,0.006,-0.0,0.0,32.548,31.322,0.096,624.424
4.767,-198.454,398.367,0.0,32.549,-0.789,0.0,-0.0,0.0,0.024,1.0,-0.0,0.0,0.004,188.316,6264.496,0.0,4.154,-0.0,-0.001,-0.001,-0.004,-0.001,-0.001,-0.004,0.498,0.498,0.549,0.023,23.694,0.0,0.083,1.062,0.0,0.0,0.0,-0.102,-0.0,0.0,0.151,-0.0,-0.0,-0.065,0.0,-0.0,-0.001,0.005,-0.0,0.0,32.553,31.326,0.096,624.618
4.783,-197.91,398.354,0.0,32.554,-0.778,0.0,-0.0,0.0,0.024,1.0,-0.0,0.0,0.004,186.413,6253.601,0.0,4.137,-0.0,-0.001,-0.001,-0.004,-0.001,-0.001,-0.004,0.498,0.498,0.548,0.023,23.689,0.0,0.083,1.06,0.0,0.0,0.0,-0.102,-0.0,0.0,0.151,-0.0,-0.0,-0.065,0.0,-0.0,-0.001,0.004,-0.0,0.0,32.558,31.331,0.096,624.808
4.8,-197.37,398.341,0.0,32.559,-0.769,0.0,-0.0,0.0,0.024,1.0,-0.0,0.0,0.003,184.552,6242.946,0.0,4.12,-0.0,-0.001,-0.001,-0.004,-0.001,-0.001,-0.004,0.498,0.498,0.547,0.023,23.683,0.0,0.082,1.058,0.0,0.0,0.0,-0.101,-0.0,0.0,0.151,-0.0,-0.0,-0.065,0.0,-0.0,-0.0,0.004,-0.0,0.0,32.563,31.336,0.096,624.999
4.817,-196.823,398.329,0.0,32.564,-0.759,0.0,-0.0,0.0,0.024,1.0,-0.0,0.0,0.003,182.768,6232.739,0.0,4.102,-0.0,-0.001,-0.001,-0.004,-0.001,-0.001,-0.004,0.498,0.498,0.546,0.023,23.678,0.0,0.082,1.057,0.0,0.0,0.0,-0.101,-0.0,0.0,0.151,-0.0,-0.0,-0.064,0.0,-0.0,-0.0,0.003,-0.0,0.0,32.568,31.341,0.096,625.186
4.833,-196.279,398.316,0.0,32.569,-0.749,0.0,-0.0,0.0,0.024,1.0,-0.0,0.0,0.002,181.007,6222.65,0.0,4.085,-0.0,-0.001,-0.001,-0.004,-0.001,-0.001,-0.004,0.498,0.498,0.545,0.023,23.673,0.0,0.082,1.055,0.0,0.0,0.0,-0.101,-0.0,0.0,0.151,-0.0,-0.0,-0.064,0.0,-0.0,-0.0,0.003,-0.0,0.0,32.573,31.346,0.096,625.374
4.85,-195.738,398.304,0.0,32.574,-0.74,0.0,-0.0,0.0,0.024,1.0,-0.0,0.0,0.002,179.323,6213.008,0.0,4.068,-0.0,-0.001,-0.001,-0.004,-0.001,-0.001,-0.004,0.498,0.498,0.544,0.023,23.668,0.0,0.081,1.053,0.0,0.0,0.0,-0.101,-0.0,0.0,0.151,-0.0,-0.0,-0.064,0.0,-0.0,-0.0,0.002,-0.0,0.0,32.578,31.35,0.096,625.558
4.867,-195.194,398.291,0.0,32.579,-0.731,0.0,-0.0,0.0,0.024,1.0,-0.0,0.0,0.001,177.696,6203.729,0.0,4.051,-0.0,-0.001,-0.001,-0.004,-0.001,-0.001,-0.004,0.498,0.498,0.543,0.023,23.663,0.0,0.081,1.052,0.0,0.0,0.0,-0.101,-0.0,0.0,0.151,-0.0,-0.0,-0.064,0.0,-0.0,-0.0,0.002,-0.0,0.0,32.583,31.355,0.096,625.743
4.883,-194.654,398.279,0.0,32.584,-0.723,0.0,-0.0,0.0,0.024,1.0,-0.0,0.0,0.001,176.109,6194.654,0.0,4.034,-0.0,-0.001,-0.001,-0.004,-0.001,-0.001,-0.004,0.498,0.498,0.542,0.023,23.658,0.0,0.08,1.05,0.0,0.0,0.0,-0.1,-0.0,0.0,0.151,-0.0,-0.0,-0.063,0.0,-0.0,-0.0,0.001,-0.0,0.0,32.587,31.359,0.096,625.924
4.9,-194.113,398.267,0.0,32.589,-0.714,0.0,-0.0,0.0,0.024,1.0,-0.0,0.0,0.0,174.579,6185.942,0.0,4.022,-0.0,-0.001,-0.001,-0.004,-0.001,-0.001,-0.004,0.498,0.498,0.541,0.023,23.653,0.0,0.08,1.049,0.0,0.0,0.0,-0.1,-0.0,0.0,0.151,-0.0,-0.0,-0.063,0.0,-0.0,-0.0,0.001,-0.0,0.0,32.592,31.364,0.096,626.106
4.917,-193.565,398.255,0.0,32.594,-0.706,0.0,-0.0,0.0,0.024,1.0,-0.0,0.0,-0.0,173.089,6177.435,0.0,4.005,-0.0,-0.001,-0.001,-0.004,-0.001,-0.001,-0.004,0.498,0.498,0.54,0.023,23.648,0.0,0.08,1.047,0.0,0.0,0.0,-0.1,-0.0,0.0,0.151,-0.0,-0.0,-0.063,0.0,-0.0,-0.0,0.0,-0.0,0.0,32.597,31.368,0.096,626.284
4.933,-193.024,398.244,0.0,32.598,-0.698,0.0,-0.0,0.0,0.024,1.0,-0.0,0.0,-0.001,171.637,6169.168,0.0,3.994,-0.0,-0.001,-0.001,-0.004,-0.001,-0.001,-0.004,0.498,0.498,0.54,0.023,23.644,0.0,0.079,1.046,0.0,0.0,0.0,-0.1,-0.0,0.0,0.151,-0.0,-0.0,-0.063,0.0,-0.0,0.0,-0.0,-0.0,0.0,32.601,31.373,0.096,626.462
4.95,-192.48,398.232,0.0,32.603,-0.691,0.0,-0.0,0.0,0.024,1.0,-0.0,0.0,-0.001,170.241,6161.229,0.0,3.976,-0.0,-0.001,-0.001,-0.004,-0.001,-0.001,-0.004,0.498,0.498,0.539,0.023,23.639,0.0,0.079,1.044,0.0,0.0,0.0,-0.1,-0.0,0.0,0.151,-0.0,-0.0,-0.062,0.0,-0.0,0.0,-0.001,-0.0,0.0,32.606,31.377,0.096,626.637
4.967,-191.935,398.221,0.0,32.608,-0.683,0.0,-0.0,0.0,0.024,1.0,-0.0,0.0,-0.001,168.883,6153.531,0.0,3.965,-0.0,-0.001,-0.001,-0.004,-0.001,-0.001,-0.004,0.498,0.498,0.538,0.023,23.635,0.0,0.079,1.043,0.0,0.0,0.0,-0.1,-0.0,0.0,0.151,-0.0,-0.0,-0.062,0.0,-0.0,0.0,-0.001,-0.0,0.0,32.61,31.382,0.096,626.812
4.983,-191.394,398.209,0.0,32.612,-0.676,0.0,-0.0,0.0,0.024,1.0,-0.0,0.0,-0.002,167.562,6146.074,0.0,3.948,-0.0,-0.001,-0.001,-0.004,-0.001,-0.001,-0.004,0.498,0.498,0.537,0.023,23.63,0.0,0.079,1.042,0.0,0.0,0.0,-0.099,-0.0,0.0,0.151,-0.0,-0.0,-0.062,0.0,-0.0,0.0,-0.001,-0.0,0.0,32.615,31.386,0.096,626.987
5.0,-190.849,398.198,0.0,32.617,-0.669,0.0,-0.0,0.0,0.024,1.0,-0.0,0.0,-0.002,166.28,6138.822,0.0,3.936,-0.0,-0.001,-0.001,-0.004,-0.001,-0.001,-0.004,0.498,0.498,0.536,0.023,23.626,0.0,0.078,1.041,0.0,0.0,0.0,-0.099,-0.0,0.0,0.151,-0.0,-0.0,-0.062,0.0,-0.0,0.0,-0.002,-0.0,0.0,32.619,31.39,0.096,627.159
5.017,-190.304,398.187,0.0,32.621,-0.662,0.0,-0.0,0.0,0.024,1.0,-0.0,0.0,-0.002,165.034,6131.812,0.0,3.925,-0.0,-0.001,-0.001,-0.004,-0.001,-0.001,-0.004,0.498,0.498,0.535,0.023,23.622,0.0,0.078,1.04,0.0,0.0,0.0,-0.099,-0.0,0.0,0.151,-0.0,-0.0,-0.062,0.0,-0.0,0.0,-0.002,-0.0,0.0,32.624,31.395,0.096,627.331
5.033,-189.763,398.176,0.0,32.626,-0.655,0.0,-0.0,0.0,0.024,1.0,-0.0,0.0,-0.003,163.825,6125.043,0.0,3.913,-0.0,-0.001,-0.001,-0.004,-0.001,-0.001,-0.004,0.498,0.498,0.535,0.023,23.617,0.0,0.078,1.038,0.0,0.0,0.0,-0.099,-0.0,0.0,0.151,-0.0,-0.0,-0.061,0.0,-0.0,0.0,-0.002,-0.0,0.0,32.628,31.399,0.096,627.503
5.05,-189.218,398.165,0.0,32.63,-0.649,0.0,-0.0,0.0,0.024,1.0,-0.0,0.0,-0.003,162.653,6118.48,0.0,3.902,-0.0,-0.001,-0.001,-0.004,-0.001,-0.001,-0.004,0.498,0.498,0.534,0.023,23.613,0.0,0.078,1.037,0.0,0.0,0.0,-0.099,-0.0,0.0,0.151,-0.0,-0.0,-0.061,0.0,-0.0,0.0,-0.003,-0.0,0.0,32.633,31.403,0.096,627.672
5.067,-188.673,398.154,0.0,32.635,-0.642,0.0,-0.0,0.0,0.024,1.0,-0.0,0.0,-0.003,161.518,6112.159,0.0,3.89,-0.0,-0.001,-0.001,-0.004,-0.001,-0.001,-0.004,0.498,0.498,0.533,0.023,23.609,0.0,0.077,1.036,0.0,0.0,0.0,-0.099,-0.0,0.0,0.151,-0.0,-0.0,-0.061,0.0,-0.0,0.0,-0.003,-0.0,0.0,32.637,31.408,0.096,627.84
5.083,-188.128,398.144,0.0,32.64,-0.636,0.0,-0.0,0.0,0.024,1.0,-0.0,0.0,-0.004,160.401,6105.958,0.0,3.879,-0.0,-0.001,-0.001,-0.004,-0.001,-0.001,-0.004,0.498,0.498,0.533,0.023,23.605,0.0,0.077,1.035,0.0,0.0,0.0,-0.099,-0.0,0.0,0.151,-0.0,-0.0,-0.061,0.0,-0.0,0.0,-0.003,-0.0,0.0,32.641,31.412,0.096,628.009
5.1,-187.583,398.133,0.0,32.644,-0.63,0.0,-0.0,0.0,0.024,1.0,-0.0,0.0,-0.004,159.32,6099.998,0.0,3.867,-0.0,-0.001,-0.001,-0.004,-0.001,-0.001,-0.004,0.498,0.498,0.532,0.022,23.601,0.0,0.077,1.034,0.0,0.0,0.0,-0.098,-0.0,0.0,0.151,-0.0,-0.0,-0.061,0.0,-0.0,0.0,-0.004,-0.0,0.0,32.646,31.416,0.096,628.178
5.117,-187.041,398.123,0.0,32.648,-0.624,0.0,-0.0,0.0,0.024,1.0,-0.0,0.0,-0.004,158.276,6094.245,0.0,3.856,-0.0,-0.001,-0.001,-0.004,-0.001,-0.001,-0.004,0.498,0.498,0.531,0.022,23.597,0.0,0.077,1.033,0.0,0.0,0.0,-0.098,-0.0,0.0,0.151,-0.0,-0.0,-0.061,0.0,-0.0,0.001,-0.004,-0.0,0.0,32.65,31.42,0.096,628.344
5.133,-186.496,398.112,0.0,32.653,-0.618,0.0,-0.0,0.0,0.024,1.0,-0.0,0.0,-0.005,157.267,6088.734,0.0,3.845,-0.0,-0.001,-0.001,-0.004,-0.001,-0.001,-0.004,0.498,0.498,0.531,0.022,23.593,0.0,0.076,1.032,0.0,0.0,0.0,-0.098,-0.0,0.0,0.151,-0.0,-0.0,-0.06,0.0,-0.0,0.001,-0.004,-0.0,0.0,32.654,31.424,0.096,628.51
5.15,-185.954,398.102,0.0,32.657,-0.613,0.0,-0.0,0.0,0.024,1.0,-0.0,0.0,-0.005,156.276,6083.342,0.0,3.833,-0.0,-0.001,-0.001,-0.004,-0.001,-0.001,-0.004,0.498,0.498,0.53,0.022,23.59,0.0,0.076,1.031,0.0,0.0,0.0,-0.098,-0.0,0.0,0.151,-0.0,-0.0,-0.06,0.0,-0.0,0.001,-0.005,-0.0,0.0,32.659,31.428,0.096,628.675
5.167,-185.411,398.092,0.0,32.661,-0.608,0.0,-0.0,0.0,0.024,1.0,-0.0,0.0,-0.005,155.322,6078.158,0.0,3.827,-0.0,-0.001,-0.001,-0.004,-0.001,-0.001,-0.004,0.498,0.498,0.53,0.022,23.586,0.0,0.076,1.03,0.0,0.0,0.0,-0.098,-0.0,0.0,0.151,-0.0,-0.0,-0.06,0.0,-0.0,0.001,-0.005,-0.0,0.0,32.663,31.432,0.096,628.838
5.183,-184.866,398.082,0.0,32.666,-0.602,0.0,-0.0,0.0,0.024,1.0,-0.0,0.0,-0.005,154.385,6073.094,0.0,3.816,-0.0,-0.001,-0.001,-0.004,-0.001,-0.001,-0.004,0.498,0.498,0.529,0.022,23.582,0.0,0.076,1.03,0.0,0.0,0.0,-0.098,-0.0,0.0,0.151,-0.0,-0.0,-0.06,0.0,-0.0,0.001,-0.005,-0.0,0.0,32.667,31.437,0.096,629.0
5.2,-184.32,398.072,0.0,32.67,-0.597,0.0,-0.0,0.0,0.024,1.0,-0.0,0.0,-0.005,153.467,6068.15,0.0,3.804,-0.0,-0.001,-0.001,-0.004,-0.001,-0.001,-0.004,0.498,0.498,0.528,0.022,23.579,0.0,0.076,1.029,0.0,0.0,0.0,-0.098,-0.0,0.0,0.151,-0.0,-0.0,-0.06,0.0,-0.0,0.001,-0.005,-0.0,0.0,32.671,31.441,0.096,629.162
5.217,-183.775,398.062,0.0,32.674,-0.592,0.0,-0.0,0.0,0.024,1.0,-0.0,0.0,-0.006,152.583,6063.448,0.0,3.799,-0.0,-0.001,-0.001,-0.004,-0.001,-0.001,-0.004,0.498,0.498,0.528,0.022,23.575,0.0,0.075,1.028,0.0,0.0,0.0,-0.098,-0.0,0.0,0.151,-0.0,-0.0,-0.06,0.0,-0.0,0.001,-0.005,-0.0,0.0,32.675,31.445,0.096,629.325
5.233,-183.232,398.052,0.0,32.678,-0.587,0.0,-0.0,0.0,0.024,1.0,-0.0,0.0,-0.006,151.718,6058.832,0.0,3.787,-0.0,-0.001,-0.001,-0.004,-0.001,-0.001,-0.004,0.498,0.498,0.527,0.022,23.572,0.0,0.075,1.027,0.0,0.0,0.0,-0.098,-0.0,0.0,0.151,-0.0,-0.0,-0.06,0.0,-0.0,0.001,-0.006,-0.0,0.0,32.679,31.449,0.096,629.484
5.25,-182.69,398.042,0.0,32.682,-0.583,0.0,-0.0,0.0,0.024,1.0,-0.0,0.0,-0.006,150.887,6054.458,0.0,3.782,-0.0,-0.001,-0.001,-0.004,-0.001,-0.001,-0.004,0.498,0.498,0.527,0.022,23.569,0.0,0.075,1.027,0.0,0.0,0.0,-0.098,-0.0,0.0,0.151,-0.0,-0.0,-0.059,0.0,-0.0,0.001,-0.006,-0.0,0.0,32.684,31.453,0.096,629.643
5.267,-182.141,398.033,0.0,32.687,-0.578,0.0,-0.0,0.0,0.024,1.0,-0.0,0.0,-0.006,150.073,6050.204,0.0,3.77,-0.0,-0.001,-0.001,-0.004,-0.001,-0.001,-0.004,0.498,0.498,0.526,0.022,23.565,0.0,0.075,1.026,0.0,0.0,0.0,-0.098,-0.0,0.0,0.151,-0.0,-0.0,-0.059,0.0,-0.0,0.001,-0.006,-0.0,0.0,32.688,31.457,0.096,629.802
5.283,-181.598,398.023,0.0,32.691,-0.574,0.0,-0.0,0.0,0.024,1.0,-0.0,0.0,-0.006,149.41,6038.008,0.0,3.753,-0.0,-0.001,-0.001,-0.004,-0.001,-0.001,-0.004,0.498,0.498,0.525,0.022,23.558,0.0,0.074,1.024,0.0,0.0,0.0,-0.097,-0.0,0.0,0.151,-0.0,-0.0,-0.059,0.0,-0.0,0.001,-0.006,-0.0,0.0,32.692,31.461,0.096,629.961
5.3,-181.055,398.014,0.0,32.695,-0.57,0.0,-0.0,0.0,0.024,1.0,-0.0,0.0,-0.006,148.816,6026.258,0.0,3.73,-0.0,-0.001,-0.001,-0.004,-0.001,-0.001,-0.004,0.498,0.498,0.524,0.022,23.55,0.0,0.074,1.022,0.0,0.0,0.0,-0.097,-0.0,0.0,0.151,-0.0,-0.0,-0.059,0.0,-0.0,0.001,-0.006,-0.0,0.0,32.696,31.465,0.096,630.117
5.317,-180.509,398.004,0.0,32.699,-0.566,0.0,-0.0,0.0,0.024,1.0,-0.0,0.0,-0.007,148.288,6014.991,0.0,3.713,-0.0,-0.001,-0.001,-0.004,-0.001,-0.001,-0.004,0.498,0.498,0.523,0.022,23.543,0.0,0.074,1.02,0.0,0.0,0.0,-0.097,-0.0,0.0,0.151,-0.0,-0.0,-0.058,0.0,-0.0,0.001,-0.006,-0.0,0.0,32.7,31.468,0.096,630.273
5.333,-179.96,397.995,0.0,32.703,-0.563,0.0,-0.0,0.0,0.024,1.0,-0.0,0.0,-0.007,147.811,6004.084,0.0,3.696,-0.0,-0.001,-0.001,-0.004,-0.001,-0.001,-0.004,0.498,0.498,0.522,0.022,23.535,0.0,0.073,1.018,0.0,0.0,0.0,-0.097,-0.0,0.0,0.151,-0.0,-0.0,-0.058,0.0,-0.0,0.001,-0.007,-0.0,0.0,32.704,31.472,0.096,630.429
5.35,-179.417,397.985,0.0,32.707,-0.56,0.0,-0.0,0.0,0.023,1.0,-0.0,0.0,-0.007,147.368,5993.416,0.0,3.678,-0.0,-0.001,-0.001,-0.004,-0.001,-0.001,-0.004,0.498,0.498,0.521,0.022,23.528,0.0,0.073,1.016,0.0,0.0,0.0,-0.096,-0.0,0.0,0.151,-0.0,-0.0,-0.058,0.0,-0.0,0.001,-0.007,-0.0,0.0,32.708,31.476,0.097,630.585
5.367,-178.874,397.976,0.0,32.711,-0.557,0.0,-0.0,0.0,0.023,1.0,-0.0,0.0,-0.007,146.99,5983.23,0.0,3.661,-0.0,-0.001,-0.001,-0.004,-0.001,-0.001,-0.004,0.498,0.498,0.52,0.022,23.521,0.0,0.072,1.015,0.0,0.0,0.0,-0.096,-0.0,0.0,0.151,-0.0,-0.0,-0.058,0.0,-0.0,0.001,-0.007,-0.0,0.0,32.712,31.48,0.097,630.742
5.383,-178.328,397.967,0.0,32.715,-0.555,0.0,-0.0,0.0,0.023,1.0,-0.0,0.0,-0.007,146.662,5973.404,0.0,3.644,-0.0,-0.001,-0.001,-0.004,-0.001,-0.001,-0.004,0.498,0.498,0.519,0.022,23.514,0.0,0.072,1.013,0.0,0.0,0.0,-0.096,-0.0,0.0,0.151,-0.0,-0.0,-0.057,0.0,-0.0,0.001,-0.007,-0.0,0.0,32.716,31.484,0.097,630.899
5.4,-177.781,397.958,0.0,32.719,-0.552,0.0,-0.0,0.0,0.023,1.0,-0.0,0.0,-0.007,146.366,5963.818,0.0,3.627,-0.0,-0.001,-0.001,-0.004,-0.001,-0.001,-0.004,0.498,0.498,0.518,0.022,23.507,0.0,0.072,1.011,0.0,0.0,0.0,-0.096,-0.0,0.0,0.151,-0.0,-0.0,-0.057,0.0,-0.0,0.001,-0.007,-0.0,0.0,32.72,31.488,0.097,631.056
5.417,-177.238,397.948,0.0,32.724,-0.55,0.0,-0.0,0.0,0.023,1.0,-0.0,0.0,-0.007,146.119,5954.593,0.0,3.615,-0.0,-0.001,-0.001,-0.004,-0.001,-0.001,-0.004,0.498,0.498,0.517,0.022,23.501,0.0,0.072,1.01,0.0,0.0,0.0,-0.096,-0.0,0.0,0.151,-0.0,-0.0,-0.057,0.0,-0.0,0.001,-0.007,-0.0,0.0,32.724,31.492,0.097,631.213
5.433,-176.692,397.939,0.0,32.728,-0.549,0.0,-0.0,0.0,0.023,1.0,-0.0,0.0,-0.007,145.906,5945.573,0.0,3.598,-0.0,-0.001,-0.001,-0.004,-0.001,-0.001,-0.004,0.498,0.498,0.516,0.022,23.494,0.0,0.071,1.008,0.0,0.0,0.0,-0.096,-0.0,0.0,0.151,-0.0,-0.0,-0.056,0.0,-0.0,0.001,-0.007,-0.0,0.0,32.728,31.496,0.097,631.367
5.45,-176.145,397.93,0.0,32.732,-0.547,0.0,-0.0,0.0,0.023,1.0,-0.0,0.0,-0.007,145.74,5936.948,0.0,3.587,-0.0,-0.001,-0.001,-0.004,-0.001,-0.001,-0.004,0.498,0.498,0.515,0.022,23.488,0.0,0.071,1.007,0.0,0.0,0.0,-0.095,-0.0,0.0,0.151,-0.0,-0.0,-0.056,0.0,-0.0,0.001,-0.007,-0.0,0.0,32.732,31.5,0.097,631.524
5.467,-175.602,397.921,0.0,32.736,-0.546,0.0,-0.0,0.0,0.023,1.0,-0.0,0.0,-0.007,145.606,5928.562,0.0,3.57,-0.0,-0.001,-0.001,-0.004,-0.001,-0.001,-0.004,0.498,0.498,0.514,0.022,23.481,0.0,0.071,1.005,0.0,0.0,0.0,-0.095,-0.0,0.0,0.151,-0.0,-0.0,-0.056,0.0,-0.0,0.001,-0.007,-0.0,0.0,32.736,31.504,0.097,631.682
5.483,-175.055,397.912,0.0,32.74,-0.545,0.0,-0.0,0.0,0.023,1.0,-0.0,0.0,-0.007,145.52,5920.504,0.0,3.558,-0.0,-0.001,-0.001,-0.004,-0.001,-0.001,-0.004,0.498,0.498,0.513,0.022,23.475,0.0,0.07,1.004,0.0,0.0,0.0,-0.095,-0.0,0.0,0.151,-0.0,-0.0,-0.056,0.0,-0.0,0.001,-0.007,-0.0,0.0,32.74,31.508,0.097,631.836
5.5,-174.512,397.903,0.0,32.744,-0.544,0.0,-0.0,0.0,0.022,1.0,-0.0,0.0,-0.007,145.466,5912.719,0.0,3.541,-0.0,-0.001,-0.001,-0.004,-0.001,-0.001,-0.004,0.498,0.498,0.513,0.022,23.469,0.0,0.07,1.003,0.0,0.0,0.0,-0.095,-0.0,0.0,0.151,-0.0,-0.0,-0.056,0.0,-0.0,0.001,-0.007,-0.0,0.0,32.744,31.512,0.097,631.994
5.517,-173.961,397.894,0.0,32.748,-0.544,0.0,-0.0,0.0,0.022,1.0,-0.0,0.0,-0.007,145.444,5905.14,0.0,3.529,-0.0,-0.001,-0.001,-0.004,-0.001,-0.001,-0.004,0.498,0.498,0.512,0.022,23.463,0.0,0.07,1.002,0.0,0.0,0.0,-0.095,-0.0,0.0,0.151,-0.0,-0.0,-0.055,0.0,-0.0,0.001,-0.007,-0.0,0.0,32.748,31.516,0.097,632.149
5.533,-173.418,397.885,0.0,32.752,-0.543,0.0,-0.0,0.0,0.022,1.0,-0.0,0.0,-0.007,145.452,5897.835,0.0,3.518,-0.0,-0.001,-0.001,-0.004,-0.001,-0.001,-0.004,0.498,0.498,0.511,0.022,23.457,0.0,0.07,1.0,0.0,0.0,0.0,-0.095,-0.0,0.0,0.151,-0.0,-0.0,-0.055,0.0,-0.0,0.001,-0.007,-0.0,0.0,32.752,31.52,0.097,632.307
5.55,-172.874,397.876,0.0,32.756,-0.543,0.0,-0.0,0.0,0.022,1.0,-0.0,0.0,-0.007,145.493,5890.736,0.0,3.507,-0.0,-0.001,-0.001,-0.004,-0.001,-0.001,-0.004,0.498,0.498,0.51,0.022,23.451,0.0,0.069,0.999,0.0,0.0,0.0,-0.094,-0.0,0.0,0.151,-0.0,-0.0,-0.055,0.0,-0.0,0.001,-0.007,-0.0,0.0,32.756,31.523,0.097,632.462
5.567,-172.324,397.866,0.0,32.76,-0.543,0.0,-0.0,0.0,0.022,1.0,-0.0,0.0,-0.007,145.565,5883.876,0.0,3.495,-0.0,-0.001,-0.001,-0.004,-0.001,-0.001,-0.004,0.498,0.498,0.51,0.022,23.446,0.0,0.069,0.998,0.0,0.0,0.0,-0.094,-0.0,0.0,0.151,-0.0,-0.0,-0.055,0.0,-0.0,0.001,-0.007,-0.0,0.0,32.76,31.527,0.097,632.617
5.583,-171.78,397.858,0.0,32.764,-0.543,0.0,-0.0,0.0,0.022,1.0,-0.0,0.0,-0.006,145.667,5877.291,0.0,3.484,-0.0,-0.001,-0.001,-0.004,-0.001,-0.001,-0.004,0.498,0.498,0.509,0.022,23.44,0.0,0.069,0.997,0.0,0.0,0.0,-0.094,-0.0,0.0,0.151,-0.0,-0.0,-0.055,0.0,-0.0,0.001,-0.007,-0.0,0.0,32.764,31.531,0.097,632.776
5.6,-171.233,397.848,0.0,32.768,-0.544,0.0,-0.0,0.0,0.022,1.0,-0.0,0.0,-0.006,145.801,5870.912,0.0,3.472,-0.0,-0.001,-0.001,-0.004,-0.001,-0.001,-0.004,0.498,0.498,0.508,0.022,23.435,0.0,0.069,0.996,0.0,0.0,0.0,-0.094,-0.0,0.0,0.151,-0.0,-0.0,-0.054,0.0,-0.0,0.001,-0.006,-0.0,0.0,32.768,31.535,0.097,632.931
5.617,-170.686,397.839,0.0,32.772,-0.544,0.0,-0.0,0.0,0.022,1.0,-0.0,0.0,-0.006,145.964,5864.806,0.0,3.461,-0.0,-0.001,-0.001,-0.004,-0.001,-0.001,-0.004,0.498,0.498,0.508,0.022,23.43,0.0,0.068,0.995,0.0,0.0,0.0,-0.094,-0.0,0.0,0.151,-0.0,-0.0,-0.054,0.0,-0.0,0.001,-0.006,-0.0,0.0,32.773,31.539,0.097,633.09
5.633,-170.141,397.83,0.0,32.776,-0.545,0.0,-0.0,0.0,0.022,1.0,-0.0,0.0,-0.006,146.143,5858.819,0.0,3.449,-0.0,-0.001,-0.001,-0.004,-0.001,-0.001,-0.004,0.498,0.498,0.507,0.022,23.424,0.0,0.068,0.994,0.0,0.0,0.0,-0.094,-0.0,0.0,0.151,-0.0,-0.0,-0.054,0.0,-0.0,0.001,-0.006,-0.0,0.0,32.777,31.543,0.097,633.249
5.65,-169.594,397.821,0.0,32.78,-0.546,0.0,-0.0,0.0,0.022,1.0,-0.0,0.0,-0.006,146.354,5853.039,0.0,3.438,-0.0,-0.001,-0.001,-0.004,-0.001,-0.001,-0.004,0.498,0.498,0.506,0.022,23.419,0.0,0.068,0.993,0.0,0.0,0.0,-0.094,-0.0,0.0,0.151,-0.0,-0.0,-0.054,0.0,-0.0,0.001,-0.006,-0.0,0.0,32.781,31.547,0.097,633.405
5.667,-169.046,397.812,0.0,32.784,-0.547,0.0,-0.0,0.0,0.022,1.0,-0.0,0.0,-0.006,146.595,5847.532,0.0,3.426,-0.0,-0.001,-0.001,-0.004,-0.001,-0.001,-0.004,0.498,0.498,0.506,0.022,23.414,0.0,0.068,0.992,0.0,0.0,0.0,-0.094,-0.0,0.0,0.151,-0.0,-0.0,-0.054,0.0,-0.0,0.001,-0.006,-0.0,0.0,32.785,31.551,0.097,633.565
5.729,-167.561,397.787,0.0,32.795,-0.55,0.0,-0.0,0.0,0.021,1.0,-0.0,0.0,-0.006,146.595,5847.532,0.0,3.426,-0.0,-0.001,-0.001,-0.004,-0.001,-0.001,-0.004,0.498,0.498,0.506,0.022,23.414,0.0,0.068,0.992,0.0,0.0,0.0,-0.094,-0.0,0.0,0.151,-0.0,-0.0,-0.054,0.0,-0.0,0.001,-0.006,-0.0,0.0,32.785,31.551,0.097,633.565
5.735,-168.843,397.809,0.0,32.786,-0.547,0.0,-0.0,0.0,0.022,1.0,-0.0,0.0,-0.006,146.85,5842.144,0.0,3.421,-0.0,-0.001,-0.001,-0.004,-0.001,-0.001,-0.004,0.498,0.498,0.505,0.022,23.41,0.0,0.068,0.991,0.0,0.0,0.0,-0.094,-0.0,0.0,0.151,-0.0,-0.0,-0.054,0.0,-0.0,0.001,-0.006,-0.0,0.0,32.789,31.555,0.097,633.724
5.75,-168.351,397.8,0.0,32.79,-0.548,0.0,-0.0,0.0,0.022,1.0,-0.0,0.0,-0.006,146.894,5843.138,0.0,3.421,-0.0,-0.001,-0.001,-0.004,-0.001,-0.001,-0.004,0.498,0.498,0.505,0.022,23.41,0.0,0.068,0.991,0.0,0.0,0.0,-0.094,-0.0,0.0,0.151,-0.0,-0.0,-0.054,0.0,-0.0,0.001,-0.006,-0.0,0.0,32.79,31.556,0.097,633.783
5.767,-167.804,397.791,0.0,32.794,-0.549,0.0,-0.0,0.0,0.022,1.0,-0.0,0.0,-0.006,147.006,5845.603,0.0,3.421,-0.0,-0.001,-0.001,-0.004,-0.001,-0.001,-0.004,0.498,0.498,0.505,0.022,23.411,0.0,0.068,0.992,0.0,0.0,0.0,-0.094,-0.0,0.0,0.151,-0.0,-0.0,-0.054,0.0,-0.0,0.001,-0.006,-0.0,0.0,32.794,31.56,0.097,633.927
5.783,-167.256,397.782,0.0,32.798,-0.55,0.0,-0.0,0.0,0.022,1.0,-0.0,0.0,-0.006,147.128,5848.326,0.0,3.421,-0.0,-0.001,-0.001,-0.004,-0.001,-0.001,-0.004,0.498,0.498,0.505,0.022,23.412,0.0,0.068,0.992,0.0,0.0,0.0,-0.094,-0.0,0.0,0.151,-0.0,-0.0,-0.054,0.0,-0.0,0.001,-0.006,-0.0,0.0,32.798,31.564,0.097,634.087
5.8,-166.708,397.773,0.0,32.802,-0.551,0.0,-0.0,0.0,0.022,1.0,-0.0,0.0,-0.006,147.235,5850.927,0.0,3.426,-0.0,-0.001,-0.001,-0.004,-0.001,-0.001,-0.004,0.498,0.498,0.505,0.022,23.412,0.0,0.068,0.992,0.0,0.0,0.0,-0.094,-0.0,0.0,0.151,-0.0,-0.0,-0.054,0.0,-0.0,0.001,-0.006,-0.0,0.0,32.802,31.568,0.097,634.246
5.817,-166.16,397.764,0.0,32.806,-0.552,0.0,-0.0,0.0,0.022,1.0,-0.0,0.0,-0.005,147.326,5853.407,0.0,3.426,-0.0,-0.001,-0.003,-0.004,-0.001,-0.003,-0.004,0.498,0.498,0.506,0.022,23.413,0.0,0.068,0.993,0.0,0.0,0.0,-0.094,-0.0,0.0,0.151,-0.0,-0.0,-0.054,0.0,-0.0,0.001,-0.006,-0.0,0.0,32.806,31.572,0.097,634.406
5.833,-165.616,397.754,0.0,32.81,-0.553,0.0,-0.0,0.0,0.022,1.0,-0.0,0.0,-0.005,147.418,5855.887,0.0,3.426,-0.0,-0.001,-0.003,-0.004,-0.001,-0.003,-0.004,0.498,0.498,0.506,0.022,23.414,0.0,0.068,0.993,0.0,0.0,0.0,-0.094,-0.0,0.0,0.151,-0.0,-0.0,-0.054,0.0,-0.0,0.001,-0.005,-0.0,0.0,32.811,31.576,0.097,634.566
5.85,-165.071,397.745,0.0,32.814,-0.554,0.0,-0.0,0.0,0.022,1.0,-0.0,0.0,-0.005,147.494,5858.246,0.0,3.426,-0.0,-0.001,-0.003,-0.004,-0.001,-0.003,-0.004,0.498,0.498,0.506,0.022,23.415,0.0,0.068,0.994,0.0,0.0,0.0,-0.094,-0.0,0.0,0.151,-0.0,-0.0,-0.054,0.0,-0.0,0.001,-0.005,-0.0,0.0,32.815,31.58,0.097,634.725
5.867,-164.523,397.736,0.0,32.818,-0.554,0.0,-0.0,0.0,0.022,1.0,-0.0,0.0,-0.005,147.554,5860.482,0.0,3.432,-0.0,-0.001,-0.001,-0.004,-0.001,-0.001,-0.004,0.498,0.498,0.506,0.022,23.415,0.0,0.068,0.994,0.0,0.0,0.0,-0.094,-0.0,0.0,0.151,-0.0,-0.0,-0.054,0.0,-0.0,0.001,-0.005,-0.0,0.0,32.819,31.584,0.097,634.885
5.883,-163.972,397.727,0.0,32.822,-0.555,0.0,-0.0,0.0,0.022,1.0,-0.0,0.0,-0.005,147.615,5862.72,0.0,3.432,-0.0,-0.001,-0.001,-0.004,-0.001,-0.001,-0.004,0.498,0.498,0.506,0.022,23.416,0.0,0.068,0.994,0.0,0.0,0.0,-0.094,-0.0,0.0,0.151,-0.0,-0.0,-0.054,0.0,-0.0,0.001,-0.005,-0.0,0.0,32.823,31.588,0.097,635.045
5.9,-163.427,397.718,0.0,32.826,-0.555,0.0,-0.0,0.0,0.022,1.0,-0.0,0.0,-0.005,147.66,5864.835,0.0,3.432,-0.0,-0.001,-0.001,-0.004,-0.001,-0.001,-0.004,0.498,0.498,0.506,0.022,23.416,0.0,0.068,0.995,0.0,0.0,0.0,-0.094,-0.0,0.0,0.151,-0.0,-0.0,-0.054,0.0,-0.0,0.001,-0.005,-0.0,0.0,32.827,31.592,0.097,635.204
5.917,-162.882,397.708,0.0,32.831,-0.556,0.0,-0.0,0.0,0.022,1.0,-0.0,0.0,-0.005,147.689,5866.829,0.0,3.432,-0.0,-0.001,-0.001,-0.004,-0.001,-0.001,-0.004,0.498,0.498,0.506,0.022,23.416,0.0,0.068,0.995,0.0,0.0,0.0,-0.094,-0.0,0.0,0.151,-0.0,-0.0,-0.054,0.0,-0.0,0.001,-0.005,-0.0,0.0,32.831,31.596,0.097,635.364
5.933,-162.334,397.699,0.0,32.835,-0.556,0.0,-0.0,0.0,0.022,1.0,-0.0,0.0,-0.005,147.719,5868.822,0.0,3.432,-0.0,-0.001,-0.001,-0.004,-0.001,-0.001,-0.004,0.498,0.498,0.506,0.022,23.417,0.0,0.068,0.995,0.0,0.0,0.0,-0.094,-0.0,0.0,0.151,-0.0,-0.0,-0.054,0.0,-0.0,0.001,-0.005,-0.0,0.0,32.835,31.6,0.097,635.523
5.95,-161.785,397.69,0.0,32.839,-0.557,0.0,-0.0,0.0,0.022,1.0,-0.0,0.0,-0.005,147.732,5870.694,0.0,3.432,-0.0,-0.001,-0.001,-0.004,-0.001,-0.001,-0.004,0.498,0.498,0.506,0.022,23.417,0.0,0.068,0.996,0.0,0.0,0.0,-0.094,-0.0,0.0,0.151,-0.0,-0.0,-0.054,0.0,-0.0,0.001,-0.005,-0.0,0.0,32.839,31.604,0.097,635.683
5.967,-161.237,397.68,0.0,32.843,-0.557,0.0,-0.0,0.0,0.022,1.0,-0.0,0.0,-0.004,147.746,5872.567,0.0,3.432,-0.0,-0.001,-0.001,-0.004,-0.001,-0.001,-0.004,0.498,0.498,0.506,0.022,23.417,0.0,0.068,0.996,0.0,0.0,0.0,-0.094,-0.0,0.0,0.151,-0.0,-0.0,-0.054,0.0,-0.0,0.001,-0.005,-0.0,0.0,32.844,31.608,0.097,635.842
5.983,-160.688,397.671,0.0,32.847,-0.557,0.0,-0.0,0.0,0.022,1.0,-0.0,0.0,-0.004,147.745,5874.317,0.0,3.432,-0.0,-0.001,-0.001,-0.004,-0.001,-0.001,-0.004,0.498,0.498,0.506,0.022,23.418,0.0,0.068,0.996,0.0,0.0,0.0,-0.094,-0.0,0.0,0.151,-0.0,-0.0,-0.054,0.0,-0.0,0.001,-0.004,-0.0,0.0,32.848,31.612,0.097,636.002
6.0,-160.143,397.662,0.0,32.851,-0.557,0.0,-0.0,0.0,0.022,1.0,-0.0,0.0,-0.004,147.743,5876.068,0.0,3.438,-0.0,-0.001,-0.001,-0.004,-0.001,-0.001,-0.004,0.498,0.498,0.506,0.022,23.418,0.0,0.068,0.997,0.0,0.0,0.0,-0.094,-0.0,0.0,0.151,-0.0,-0.0,-0.054,0.0,-0.0,0.001,-0.004,-0.0,0.0,32.852,31.616,0.097,636.162
6.017,-159.598,397.653,0.0,32.855,-0.558,0.0,-0.0,0.0,0.022,1.0,-0.0,0.0,-0.004,147.725,5877.696,0.0,3.438,-0.0,-0.001,-0.001,-0.004,-0.001,-0.001,-0.004,0.498,0.498,0.506,0.022,23.418,0.0,0.068,0.997,0.0,0.0,0.0,-0.094,-0.0,0.0,0.151,-0.0,-0.0,-0.054,0.0,-0.0,0.001,-0.004,-0.0,0.0,32.856,31.62,0.097,636.321
6.033,-159.049,397.643,0.0,32.859,-0.558,0.0,-0.0,0.0,0.022,1.0,-0.0,0.0,-0.004,147.708,5879.325,0.0,3.438,-0.0,-0.001,-0.001,-0.004,-0.001,-0.001,-0.004,0.498,0.498,0.506,0.022,23.418,0.0,0.068,0.997,0.0,0.0,0.0,-0.094,-0.0,0.0,0.151,-0.0,-0.0,-0.054,0.0,-0.0,0.001,-0.004,-0.0,0.0,32.86,31.624,0.097,636.48
6.05,-158.5,397.634,0.0,32.863,-0.558,0.0,-0.0,0.0,0.022,1.0,-0.0,0.0,-0.004,147.675,5880.832,0.0,3.438,-0.0,-0.001,-0.001,-0.004,-0.001,-0.001,-0.004,0.498,0.498,0.506,0.022,23.418,0.0,0.068,0.998,0.0,0.0,0.0,-0.094,-0.0,0.0,0.151,-0.0,-0.0,-0.054,0.0,-0.0,0.001,-0.004,-0.0,0.0,32.864,31.628,0.097,636.64
6.067,-157.951,397.625,0.0,32.868,-0.558,0.0,-0.0,0.0,0.022,1.0,-0.0,0.0,-0.004,147.642,5882.339,0.0,3.438,-0.0,-0.001,-0.001,-0.004,-0.001,-0.001,-0.004,0.498,0.498,0.506,0.022,23.418,0.0,0.068,0.998,0.0,0.0,0.0,-0.094,-0.0,0.0,0.151,-0.0,-0.0,-0.054,0.0,-0.0,0.001,-0.004,-0.0,0.0,32.868,31.632,0.097,636.799
6.083,-157.402,397.615,0.0,32.872,-0.558,0.0,-0.0,0.0,0.022,1.0,-0.0,0.0,-0.004,147.593,5883.724,0.0,3.438,-0.0,-0.001,-0.001,-0.004,-0.001,-0.001,-0.004,0.498,0.498,0.506,0.022,23.418,0.0,0.068,0.998,0.0,0.0,0.0,-0.094,-0.0,0.0,0.151,-0.0,-0.0,-0.054,0.0,-0.0,0.001,-0.004,-0.0,0.0,32.872,31.636,0.097,636.959
6.1,-156.86,397.606,0.0,32.876,-0.558,0.0,-0.0,0.0,0.022,1.0,-0.0,0.0,-0.004,147.545,5885.109,0.0,3.438,-0.0,-0.001,-0.001,-0.004,-0.001,-0.001,-0.004,0.498,0.498,0.506,0.022,23.418,0.0,0.068,0.998,0.0,0.0,0.0,-0.094,-0.0,0.0,0.151,-0.0,-0.0,-0.054,0.0,-0.0,0.0,-0.004,-0.0,0.0,32.876,31.64,0.097,637.118
6.117,-156.308,397.597,0.0,32.88,-0.558,0.0,-0.0,0.0,0.022,1.0,-0.0,0.0,-0.004,147.496,5886.494,0.0,3.438,-0.0,-0.001,-0.001,-0.004,-0.001,-0.001,-0.004,0.498,0.498,0.506,0.022,23.418,0.0,0.068,0.998,0.0,0.0,0.0,-0.094,-0.0,0.0,0.151,-0.0,-0.0,-0.054,0.0,-0.0,0.0,-0.004,-0.0,0.0,32.88,31.644,0.097,637.278
6.133,-155.762,397.588,0.0,32.884,-0.558,0.0,-0.0,0.0,0.022,1.0,-0.0,0.0,-0.004,147.432,5887.757,0.0,3.438,-0.0,-0.001,-0.001,-0.004,-0.001,-0.001,-0.004,0.498,0.498,0.506,0.022,23.418,0.0,0.068,0.999,0.0,0.0,0.0,-0.094,-0.0,0.0,0.151,-0.0,-0.0,-0.054,0.0,-0.0,0.0,-0.004,-0.0,0.0,32.884,31.648,0.097,637.437
6.15,-155.216,397.578,0.0,32.888,-0.558,0.0,-0.0,0.0,0.022,1.0,-0.0,0.0,-0.003,147.367,5889.02,0.0,3.432,-0.0,-0.001,-0.001,-0.004,-0.001,-0.001,-0.004,0.498,0.498,0.506,0.022,23.418,0.0,0.068,0.999,0.0,0.0,0.0,-0.094,-0.0,0.0,0.151,-0.0,-0.0,-0.054,0.0,-0.0,0.0,-0.004,-0.0,0.0,32.889,31.652,0.097,637.597
6.167,-154.667,397.569,0.0,32.892,-0.557,0.0,-0.0,0.0,0.022,1.0,-0.0,0.0,-0.003,147.303,5890.283,0.0,3.432,-0.0,-0.001,-0.001,-0.004,-0.001,-0.001,-0.004,0.498,0.498,0.506,0.022,23.418,0.0,0.068,0.999,0.0,0.0,0.0,-0.094,-0.0,0.0,0.151,-0.0,-0.0,-0.054,0.0,-0.0,0.0,-0.003,-0.0,0.0,32.893,31.656,0.097,637.756
6.183,-154.117,397.56,0.0,32.896,-0.557,0.0,-0.0,0.0,0.022,1.0,-0.0,0.0,-0.003,147.223,5891.424,0.0,3.432,-0.0,-0.001,-0.001,-0.004,-0.001,-0.001,-0.004,0.498,0.498,0.506,0.022,23.417,0.0,0.068,0.999,0.0,0.0,0.0,-0.094,-0.0,0.0,0.151,-0.0,-0.0,-0.054,0.0,-0.0,0.0,-0.003,-0.0,0.0,32.897,31.659,0.097,637.916
6.2,-153.568,397.55,0.0,32.9,-0.557,0.0,-0.0,0.0,0.022,1.0,-0.0,0.0,-0.003,147.143,5892.565,0.0,3.432,-0.0,-0.001,-0.001,-0.004,-0.001,-0.001,-0.004,0.498,0.498,0.506,0.022,23.417,0.0,0.068,1.0,0.0,0.0,0.0,-0.094,-0.0,0.0,0.151,-0.0,-0.0,-0.054,0.0,-0.0,0.0,-0.003,-0.0,0.0,32.901,31.663,0.097,638.075
6.217,-153.018,397.541,0.0,32.904,-0.557,0.0,-0.0,0.0,0.022,1.0,-0.0,0.0,-0.003,147.063,5893.706,0.0,3.432,-0.0,-0.001,-0.001,-0.004,-0.001,-0.001,-0.004,0.498,0.498,0.506,0.022,23.417,0.0,0.068,1.0,0.0,0.0,0.0,-0.094,-0.0,0.0,0.151,-0.0,-0.0,-0.054,0.0,-0.0,0.0,-0.003,-0.0,0.0,32.905,31.667,0.097,638.234
6.233,-152.472,397.532,0.0,32.908,-0.556,0.0,-0.0,0.0,0.022,1.0,-0.0,0.0,-0.003,146.967,5894.724,0.0,3.432,-0.0,-0.001,-0.001,-0.004,-0.001,-0.001,-0.004,0.498,0.498,0.506,0.022,23.416,0.0,0.068,1.0,0.0,0.0,0.0,-0.094,-0.0,0.0,0.151,-0.0,-0.0,-0.054,0.0,-0.0,0.0,-0.003,-0.0,0.0,32.909,31.671,0.097,638.394
6.25,-151.926,397.523,0.0,32.913,-0.556,0.0,-0.0,0.0,0.022,1.0,-0.0,0.0,-0.003,146.871,5895.743,0.0,3.432,-0.0,-0.001,-0.001,-0.004,-0.001,-0.001,-0.004,0.498,0.498,0.506,0.022,23.416,0.0,0.068,1.0,0.0,0.0,0.0,-0.094,-0.0,0.0,0.151,-0.0,-0.0,-0.054,0.0,-0.0,0.0,-0.003,-0.0,0.0,32.913,31.675,0.097,638.553
6.267,-151.376,397.513,0.0,32.917,-0.556,0.0,-0.0,0.0,0.022,1.0,-0.0,0.0,-0.003,146.776,5896.762,0.0,3.432,-0.0,-0.001,-0.001,-0.004,-0.001,-0.001,-0.004,0.498,0.498,0.506,0.022,23.416,0.0,0.068,1.0,0.0,0.0,0.0,-0.094,-0.0,0.0,0.151,-0.0,-0.0,-0.054,0.0,-0.0,0.0,-0.003,-0.0,0.0,32.917,31.679,0.097,638.713
6.283,-150.826,397.504,0.0,32.921,-0.555,0.0,-0.0,0.0,0.022,1.0,-0.0,0.0,-0.003,146.664,5897.658,0.0,3.432,-0.0,-0.001,-0.001,-0.004,-0.001,-0.001,-0.004,0.498,0.498,0.506,0.022,23.415,0.0,0.068,1.0,0.0,0.0,0.0,-0.094,-0.0,0.0,0.151,-0.0,-0.0,-0.054,0.0,-0.0,0.0,-0.003,-0.0,0.0,32.921,31.683,0.097,638.872
6.3,-150.277,397.495,0.0,32.925,-0.555,0.0,-0.0,0.0,0.022,1.0,-0.0,0.0,-0.002,146.553,5898.555,0.0,3.432,-0.0,-0.001,-0.001,-0.004,-0.001,-0.001,-0.004,0.498,0.498,0.506,0.022,23.415,0.0,0.068,1.0,0.0,0.0,0.0,-0.094,-0.0,0.0,0.151,-0.0,-0.0,-0.054,0.0,-0.0,0.0,-0.003,-0.0,0.0,32.926,31.687,0.097,639.032
6.317,-149.73,397.486,0.0,32.929,-0.554,0.0,-0.0,0.0,0.022,1.0,-0.0,0.0,-0.002,146.442,5899.451,0.0,3.426,-0.0,-0.001,-0.001,-0.004,-0.001,-0.001,-0.004,0.498,0.498,0.506,0.022,23.415,0.0,0.068,1.001,0.0,0.0,0.0,-0.094,-0.0,0.0,0.151,-0.0,-0.0,-0.054,0.0,-0.0,0.0,-0.002,-0.0,0.0,32.93,31.691,0.097,639.191
6.333,-149.18,397.476,0.0,32.933,-0.554,0.0,-0.0,0.0,0.022,1.0,-0.0,0.0,-0.002,146.33,5900.348,0.0,3.426,-0.0,-0.001,-0.001,-0.004,-0.001,-0.001,-0.004,0.498,0.498,0.506,0.022,23.414,0.0,0.068,1.001,0.0,0.0,0.0,-0.094,-0.0,0.0,0.151,-0.0,-0.0,-0.054,0.0,-0.0,0.0,-0.002,-0.0,0.0,32.934,31.695,0.097,639.35
6.35,-148.63,397.467,0.0,32.937,-0.553,0.0,-0.0,0.0,0.022,1.0,-0.0,0.0,-0.002,146.203,5901.122,0.0,3.426,-0.0,-0.001,-0.001,-0.004,-0.001,-0.001,-0.004,0.498,0.498,0.506,0.022,23.414,0.0,0.068,1.001,0.0,0.0,0.0,-0.094,-0.0,0.0,0.151,-0.0,-0.0,-0.054,0.0,-0.0,0.0,-0.002,-0.0,0.0,32.938,31.699,0.097,639.51
